[{"city": "Kvarkeno", "name": "Kvarkeno", "country": "Russia", "altitude": "305", "iata": "", "longitude": "59.683333", "icao": "UWOH", "latitude": "52.078333", "timezone": "6", "dst": "U"}, {"city": "San Pedro", "name": "San Pedro", "country": "Cote d'Ivoire", "altitude": "26", "iata": "SPY", "longitude": "-6.660817", "icao": "DISP", "latitude": "4.746717", "timezone": "0", "dst": "N"}, {"city": "Silver Springs", "name": "Silver Springs Airport", "country": "United States", "altitude": "4269", "iata": "SPZ", "longitude": "-119.2511944", "icao": "KSPZ", "latitude": "39.4030278", "timezone": "-8", "dst": "A"}, {"city": "Menongue", "name": "Menongue", "country": "Angola", "altitude": "4469", "iata": "SPP", "longitude": "17.719833", "icao": "FNME", "latitude": "-14.657583", "timezone": "1", "dst": "N"}, {"city": "Rundu", "name": "Rundu", "country": "Namibia", "altitude": "3627", "iata": "NDU", "longitude": "19.719439", "icao": "FYRU", "latitude": "-17.956461", "timezone": "1", "dst": "S"}, {"city": "San Pedro", "name": "San Pedro", "country": "Belize", "altitude": "4", "iata": "SPR", "longitude": "-87.971075", "icao": "MZ10", "latitude": "17.913936", "timezone": "-6", "dst": "U"}, {"city": "Wichita Falls", "name": "Sheppard Afb Wichita Falls Muni", "country": "United States", "altitude": "1019", "iata": "SPS", "longitude": "-98.491894", "icao": "KSPS", "latitude": "33.988797", "timezone": "-6", "dst": "A"}, {"city": "Split", "name": "Split", "country": "Croatia", "altitude": "79", "iata": "SPU", "longitude": "16.297964", "icao": "LDSP", "latitude": "43.538944", "timezone": "1", "dst": "E"}, {"city": "Spencer", "name": "Spencer Muni", "country": "United States", "altitude": "1339", "iata": "SPW", "longitude": "-95.202805", "icao": "KSPW", "latitude": "43.165527", "timezone": "-6", "dst": "A"}, {"city": "Springfield", "name": "Abraham Lincoln Capital", "country": "United States", "altitude": "597", "iata": "SPI", "longitude": "-89.677889", "icao": "KSPI", "latitude": "39.8441", "timezone": "-6", "dst": "A"}, {"city": "Chitose", "name": "Chitose", "country": "Japan", "altitude": "87", "iata": "SPK", "longitude": "141.666447", "icao": "RJCJ", "latitude": "42.794475", "timezone": "9", "dst": "U"}, {"city": "Spangdahlem", "name": "Spangdahlem Ab", "country": "Germany", "altitude": "1197", "iata": "SPM", "longitude": "6.6925", "icao": "ETAD", "latitude": "49.972667", "timezone": "1", "dst": "E"}, {"city": "Saipan", "name": "Francisco C Ada Saipan Intl", "country": "Northern Mariana Islands", "altitude": "215", "iata": "SPN", "longitude": "145.729356", "icao": "PGSN", "latitude": "15.119003", "timezone": "10", "dst": "U"}, {"city": "San Luis", "name": "Scappoose Industrial Airpark", "country": "United States", "altitude": "58", "iata": "SPB", "longitude": "-122.861833", "icao": "KSPB", "latitude": "45.771028", "timezone": "-8", "dst": "A"}, {"city": "Santa Cruz De La Palma", "name": "La Palma", "country": "Spain", "altitude": "107", "iata": "SPC", "longitude": "-17.755611", "icao": "GCLA", "latitude": "28.626478", "timezone": "0", "dst": "E"}, {"city": "Saidpur", "name": "Saidpur", "country": "Bangladesh", "altitude": "125", "iata": "SPD", "longitude": "88.908869", "icao": "VGSD", "latitude": "25.759228", "timezone": "6", "dst": "U"}, {"city": "Spearfish-South Dakota", "name": "Black Hills Airport-Clyde Ice Field", "country": "United States", "altitude": "3931", "iata": "SPF", "longitude": "-103.7860053", "icao": "KSPF", "latitude": "44.4811407", "timezone": "-7", "dst": "A"}, {"city": "St. Petersburg", "name": "Albert Whitted", "country": "United States", "altitude": "7", "iata": "SPG", "longitude": "-82.626972", "icao": "KSPG", "latitude": "27.765111", "timezone": "-5", "dst": "A"}, {"city": "Jammu", "name": "Jammu", "country": "India", "altitude": "1029", "iata": "IXJ", "longitude": "74.837389", "icao": "VIJU", "latitude": "32.689142", "timezone": "5", "dst": "N"}, {"city": "Keshod", "name": "Keshod", "country": "India", "altitude": "167", "iata": "IXK", "longitude": "70.270403", "icao": "VAKS", "latitude": "21.317069", "timezone": "5.5", "dst": "N"}, {"city": "Kailashahar", "name": "Kailashahar", "country": "India", "altitude": "79", "iata": "IXH", "longitude": "92.007156", "icao": "VEKR", "latitude": "24.308192", "timezone": "5.5", "dst": "N"}, {"city": "Lilabari", "name": "Lilabari", "country": "India", "altitude": "330", "iata": "IXI", "longitude": "94.09765", "icao": "VELR", "latitude": "27.295494", "timezone": "5.5", "dst": "N"}, {"city": "Leh", "name": "Leh", "country": "India", "altitude": "10682", "iata": "IXL", "longitude": "77.546514", "icao": "VILH", "latitude": "34.135872", "timezone": "5.5", "dst": "N"}, {"city": "Madurai", "name": "Madurai", "country": "India", "altitude": "459", "iata": "IXM", "longitude": "78.093378", "icao": "VOMD", "latitude": "9.834508", "timezone": "5.5", "dst": "N"}, {"city": "Baghdogra", "name": "Bagdogra", "country": "India", "altitude": "412", "iata": "IXB", "longitude": "88.328567", "icao": "VEBD", "latitude": "26.681206", "timezone": "5.5", "dst": "N"}, {"city": "Chandigarh", "name": "Chandigarh", "country": "India", "altitude": "1012", "iata": "IXC", "longitude": "76.788542", "icao": "VICG", "latitude": "30.673469", "timezone": "5.5", "dst": "N"}, {"city": "Agartala", "name": "Agartala", "country": "India", "altitude": "46", "iata": "IXA", "longitude": "91.24045", "icao": "VEAT", "latitude": "23.886978", "timezone": "5.5", "dst": "N"}, {"city": "Paris", "name": "Gare du Nord", "country": "France", "altitude": "423", "iata": "XPG", "longitude": "2.355323", "icao": "\\N", "latitude": "48.880931", "timezone": "1", "dst": "E"}, {"city": "Belgaum", "name": "Belgaum", "country": "India", "altitude": "2487", "iata": "IXG", "longitude": "74.618292", "icao": "VABM", "latitude": "15.859286", "timezone": "5.5", "dst": "N"}, {"city": "Allahabad", "name": "Allahabad", "country": "India", "altitude": "322", "iata": "IXD", "longitude": "81.733872", "icao": "VIAL", "latitude": "25.440064", "timezone": "5.5", "dst": "N"}, {"city": "Mangalore", "name": "Mangalore", "country": "India", "altitude": "337", "iata": "IXE", "longitude": "74.890069", "icao": "VOML", "latitude": "12.961267", "timezone": "5.5", "dst": "N"}, {"city": "Port Blair", "name": "Port Blair", "country": "India", "altitude": "14", "iata": "IXZ", "longitude": "92.729744", "icao": "VOPB", "latitude": "11.641161", "timezone": "5.5", "dst": "N"}, {"city": "Kandla", "name": "Kandla", "country": "India", "altitude": "96", "iata": "IXY", "longitude": "70.100289", "icao": "VAKE", "latitude": "23.112719", "timezone": "5.5", "dst": "N"}, {"city": "Ranchi", "name": "Birsa Munda", "country": "India", "altitude": "2148", "iata": "IXR", "longitude": "85.321675", "icao": "VERC", "latitude": "23.31425", "timezone": "5.5", "dst": "N"}, {"city": "Silchar", "name": "Silchar", "country": "India", "altitude": "352", "iata": "IXS", "longitude": "92.978742", "icao": "VEKU", "latitude": "24.912928", "timezone": "5.5", "dst": "N"}, {"city": "Pathankot", "name": "Pathankot", "country": "India", "altitude": "1017", "iata": "IXP", "longitude": "75.634628", "icao": "VIPK", "latitude": "32.233778", "timezone": "5.5", "dst": "N"}, {"city": "Jamshedpur", "name": "Jamshedpur", "country": "India", "altitude": "505", "iata": "IXW", "longitude": "86.168844", "icao": "VEJS", "latitude": "22.813211", "timezone": "5.5", "dst": "N"}, {"city": "Aurangabad", "name": "Aurangabad", "country": "India", "altitude": "1911", "iata": "IXU", "longitude": "75.398114", "icao": "VAAU", "latitude": "19.862728", "timezone": "5.5", "dst": "N"}, {"city": "Narsaq", "name": "Narsaq Heliport", "country": "Greenland", "altitude": "0", "iata": "JNS", "longitude": "-46.0586", "icao": "BGNS", "latitude": "60.9167", "timezone": "-3", "dst": "E"}, {"city": "Phu Quoc", "name": "Duong Dong Airport", "country": "Vietnam", "altitude": "23", "iata": "PQC", "longitude": "103.967169", "icao": "\\N", "latitude": "10.227025", "timezone": "7", "dst": "U"}, {"city": "Juneau", "name": "Juneau Intl", "country": "United States", "altitude": "21", "iata": "JNU", "longitude": "-134.576278", "icao": "PAJN", "latitude": "58.354972", "timezone": "-9", "dst": "A"}, {"city": "Presque Isle", "name": "Northern Maine Rgnl At Presque Isle", "country": "United States", "altitude": "534", "iata": "PQI", "longitude": "-68.044797", "icao": "KPQI", "latitude": "46.688958", "timezone": "-4", "dst": "A"}, {"city": "Cyclades Islands", "name": "Naxos", "country": "Greece", "altitude": "10", "iata": "JNX", "longitude": "25.368056", "icao": "LGNX", "latitude": "37.080556", "timezone": "2", "dst": "E"}, {"city": "Johannesburg", "name": "Johannesburg Intl", "country": "South Africa", "altitude": "5558", "iata": "JNB", "longitude": "28.246", "icao": "FAJS", "latitude": "-26.139166", "timezone": "2", "dst": "U"}, {"city": "Pilot Station", "name": "Pilot Station Airport", "country": "United States", "altitude": "305", "iata": "PQS", "longitude": "-162.899444", "icao": "\\N", "latitude": "61.934444", "timezone": "-9", "dst": "A"}, {"city": "Jining", "name": "Jining Airport ", "country": "China", "altitude": "1540", "iata": "JNG", "longitude": "116.533", "icao": "\\N", "latitude": "35.417", "timezone": "8", "dst": "U"}, {"city": "Nanortalik", "name": "Nanortalik Heliport", "country": "Greenland", "altitude": "0", "iata": "JNN", "longitude": "-45.2317", "icao": "BGNN", "latitude": "60.14", "timezone": "-3", "dst": "E"}, {"city": "Tanjung Redep-Borneo Island", "name": "Barau(Kalimaru) Airport", "country": "Indonesia", "altitude": "59", "iata": "BEJ", "longitude": "117.432256", "icao": "WALK", "latitude": "2.155497", "timezone": "8", "dst": "N"}, {"city": "Benton Harbor", "name": "Southwest Michigan Regional Airport", "country": "United States", "altitude": "643", "iata": "BEH", "longitude": "-86.4285", "icao": "\\N", "latitude": "42.1285833", "timezone": "-5", "dst": "A"}, {"city": "Beica", "name": "Beica Airport", "country": "Ethiopia", "altitude": "5410", "iata": "BEI", "longitude": "34.5219", "icao": "HABE", "latitude": "9.38639", "timezone": "3", "dst": "U"}, {"city": "Benghazi", "name": "Benina", "country": "Libya", "altitude": "433", "iata": "BEN", "longitude": "20.269472", "icao": "HLLB", "latitude": "32.096786", "timezone": "1", "dst": "N"}, {"city": "Lake Macquarie", "name": "Belmont Airport", "country": "Australia", "altitude": "5", "iata": "BEO", "longitude": "151.648333", "icao": "YPEC", "latitude": "-33.066667", "timezone": "10", "dst": "O"}, {"city": "Belem", "name": "Val De Cans Intl", "country": "Brazil", "altitude": "54", "iata": "BEL", "longitude": "-48.476292", "icao": "SBBE", "latitude": "-1.37925", "timezone": "-3", "dst": "S"}, {"city": "Benbecula", "name": "Benbecula", "country": "United Kingdom", "altitude": "19", "iata": "BEB", "longitude": "-7.362778", "icao": "EGPL", "latitude": "57.481111", "timezone": "0", "dst": "E"}, {"city": "Wichita", "name": "Beech Factory Airport", "country": "United States", "altitude": "1409", "iata": "BEC", "longitude": "-97.2149167", "icao": "KBEC", "latitude": "37.6939167", "timezone": "-5", "dst": "A"}, {"city": "Bluefields", "name": "Bluefields", "country": "Nicaragua", "altitude": "41", "iata": "BEF", "longitude": "-83.774086", "icao": "MNBL", "latitude": "11.990961", "timezone": "-6", "dst": "U"}, {"city": "Belgrade", "name": "Beograd", "country": "Serbia", "altitude": "335", "iata": "BEG", "longitude": "20.309139", "icao": "LYBE", "latitude": "44.818444", "timezone": "1", "dst": "E"}, {"city": "Bedford", "name": "Laurence G Hanscom Fld", "country": "United States", "altitude": "133", "iata": "BED", "longitude": "-71.289031", "icao": "KBED", "latitude": "42.469953", "timezone": "-5", "dst": "A"}, {"city": "Beru Island", "name": "Beru Island Airport", "country": "Kiribati", "altitude": "10", "iata": "BEZ", "longitude": "176.007222", "icao": "NGBR", "latitude": "-1.254722", "timezone": "10", "dst": "U"}, {"city": "Beirut", "name": "Rafic Hariri Intl", "country": "Lebanon", "altitude": "87", "iata": "BEY", "longitude": "35.488389", "icao": "OLBA", "latitude": "33.820931", "timezone": "2", "dst": "E"}, {"city": "Berlin", "name": "Berlin Brandenburg Willy Brandt", "country": "Germany", "altitude": "154", "iata": "BER", "longitude": "13.503333", "icao": "EDDB", "latitude": "52.366667", "timezone": "1", "dst": "E"}, {"city": "Brest", "name": "Guipavas", "country": "France", "altitude": "325", "iata": "BES", "longitude": "-4.418539", "icao": "LFRB", "latitude": "48.447911", "timezone": "1", "dst": "E"}, {"city": "Bellary", "name": "Bellary", "country": "India", "altitude": "30", "iata": "BEP", "longitude": "76.882775", "icao": "VOBI", "latitude": "15.162783", "timezone": "5.5", "dst": "N"}, {"city": "Honington", "name": "Honington", "country": "United Kingdom", "altitude": "174", "iata": "BEQ", "longitude": "0.772939", "icao": "EGXH", "latitude": "52.342611", "timezone": "0", "dst": "E"}, {"city": "Beer-sheba", "name": "Teyman", "country": "Israel", "altitude": "656", "iata": "BEV", "longitude": "34.722953", "icao": "LLBS", "latitude": "31.287003", "timezone": "2", "dst": "U"}, {"city": "Beira", "name": "Beira", "country": "Mozambique", "altitude": "33", "iata": "BEW", "longitude": "34.907556", "icao": "FQBR", "latitude": "-19.796419", "timezone": "2", "dst": "U"}, {"city": "Bethel", "name": "Bethel", "country": "United States", "altitude": "121", "iata": "BET", "longitude": "-161.838", "icao": "PABE", "latitude": "60.779778", "timezone": "-9", "dst": "A"}, {"city": "Bedourie", "name": "Bedourie Airport", "country": "Australia", "altitude": "300", "iata": "BEU", "longitude": "139.46", "icao": "YBIE", "latitude": "-24.3461", "timezone": "10", "dst": "O"}, {"city": "Grozny", "name": "Grozny Airport", "country": "Russia", "altitude": "548", "iata": "GRV", "longitude": "45.7841", "icao": "URMG", "latitude": "43.2981", "timezone": "4", "dst": "N"}, {"city": "Graciosa Island", "name": "Graciosa", "country": "Portugal", "altitude": "86", "iata": "GRW", "longitude": "-28.029847", "icao": "LPGR", "latitude": "39.092169", "timezone": "-1", "dst": "E"}, {"city": "Sao Paulo", "name": "Guarulhos Gov Andre Franco Montouro", "country": "Brazil", "altitude": "2459", "iata": "GRU", "longitude": "-46.469511", "icao": "SBGR", "latitude": "-23.432075", "timezone": "-3", "dst": "S"}, {"city": "Grand Rapids", "name": "Gerald R Ford Intl", "country": "United States", "altitude": "794", "iata": "GRR", "longitude": "-85.522806", "icao": "KGRR", "latitude": "42.880833", "timezone": "-5", "dst": "A"}, {"city": "Grosseto", "name": "Grosseto", "country": "Italy", "altitude": "15", "iata": "GRS", "longitude": "11.071897", "icao": "LIRS", "latitude": "42.759747", "timezone": "1", "dst": "E"}, {"city": "Gurupi", "name": "Gurupi Airport", "country": "Brazil", "altitude": "10", "iata": "GRP", "longitude": "-49.068889", "icao": "SWGI", "latitude": "-11.728889", "timezone": "-3", "dst": "S"}, {"city": "Groningen", "name": "Eelde", "country": "Netherlands", "altitude": "17", "iata": "GRQ", "longitude": "6.579444", "icao": "EHGG", "latitude": "53.11972", "timezone": "1", "dst": "E"}, {"city": "Graz", "name": "Graz", "country": "Austria", "altitude": "1115", "iata": "GRZ", "longitude": "15.439628", "icao": "LOWG", "latitude": "46.991067", "timezone": "1", "dst": "E"}, {"city": "Granada", "name": "Granada", "country": "Spain", "altitude": "1860", "iata": "GRX", "longitude": "-3.777356", "icao": "LEGR", "latitude": "37.188731", "timezone": "1", "dst": "E"}, {"city": "Gr\u00edmsey", "name": "Gr\u00edmsey Airport", "country": "Iceland", "altitude": "66", "iata": "GRY", "longitude": "-18.0175", "icao": "BIGR", "latitude": "66.5547", "timezone": "0", "dst": "N"}, {"city": "Fort Lewis", "name": "Gray Aaf", "country": "United States", "altitude": "302", "iata": "GRF", "longitude": "-122.580783", "icao": "KGRF", "latitude": "47.079217", "timezone": "-8", "dst": "A"}, {"city": "Green Bay", "name": "Austin Straubel Intl", "country": "United States", "altitude": "695", "iata": "GRB", "longitude": "-88.129589", "icao": "KGRB", "latitude": "44.485072", "timezone": "-6", "dst": "A"}, {"city": "Gerona", "name": "Girona", "country": "Spain", "altitude": "468", "iata": "GRO", "longitude": "2.760547", "icao": "LEGE", "latitude": "41.900969", "timezone": "1", "dst": "E"}, {"city": "Grand Marais", "name": "Grand Marais Cook County Airport", "country": "United States", "altitude": "1799", "iata": "GRM", "longitude": "-90.3829444", "icao": "KCKC", "latitude": "47.8383333", "timezone": "-6", "dst": "U"}, {"city": "George", "name": "George", "country": "South Africa", "altitude": "648", "iata": "GRJ", "longitude": "22.378889", "icao": "FAGG", "latitude": "-34.005553", "timezone": "2", "dst": "U"}, {"city": "Killeen", "name": "Robert Gray Aaf", "country": "United States", "altitude": "1015", "iata": "GRK", "longitude": "-97.828917", "icao": "KGRK", "latitude": "31.06725", "timezone": "-6", "dst": "A"}, {"city": "Grand Island", "name": "Central Nebraska Regional Airport", "country": "United States", "altitude": "1847", "iata": "GRI", "longitude": "-98.3096", "icao": "KGRI", "latitude": "40.9675", "timezone": "-6", "dst": "A"}, {"city": "Tarija", "name": "Capitan Oriel Lea Plaza", "country": "Bolivia", "altitude": "6084", "iata": "TJA", "longitude": "-64.701325", "icao": "SLTJ", "latitude": "-21.555736", "timezone": "-4", "dst": "U"}, {"city": "Nonouti", "name": "Nonouti Airport", "country": "Kiribati", "altitude": "10", "iata": "NON", "longitude": "174.366667", "icao": "NGTO", "latitude": "-0.616667", "timezone": "10", "dst": "U"}, {"city": "Hamilton", "name": "Hamilton", "country": "New Zealand", "altitude": "172", "iata": "HLZ", "longitude": "175.332056", "icao": "NZHN", "latitude": "-37.866661", "timezone": "12", "dst": "Z"}, {"city": "Noyabrsk", "name": "Noyabrsk", "country": "Russia", "altitude": "20", "iata": "NOJ", "longitude": "75.162243", "icao": "USRO", "latitude": "63.110079", "timezone": "6", "dst": "N"}, {"city": "Norden", "name": "Sonderlandeplatz Norden-Norddeich", "country": "Germany", "altitude": "3", "iata": "NOE", "longitude": "7.191389", "icao": "EDWS", "latitude": "53.632221", "timezone": "1", "dst": "E"}, {"city": "Nogales", "name": "Nogales Intl", "country": "Mexico", "altitude": "3990", "iata": "NOG", "longitude": "-110.975831", "icao": "MMNG", "latitude": "31.226083", "timezone": "-7", "dst": "S"}, {"city": "Tyumen", "name": "Roschino", "country": "Russia", "altitude": "378", "iata": "TJM", "longitude": "65.3243", "icao": "USTR", "latitude": "57.189567", "timezone": "6", "dst": "N"}, {"city": "Fort Hood", "name": "Hood Aaf", "country": "United States", "altitude": "924", "iata": "HLR", "longitude": "-97.714469", "icao": "KHLR", "latitude": "31.138731", "timezone": "-6", "dst": "A"}, {"city": "Nosara Beach", "name": "Nosara", "country": "Costa Rica", "altitude": "33", "iata": "NOB", "longitude": "-85.653", "icao": "MRNS", "latitude": "9.97649", "timezone": "-6", "dst": "U"}, {"city": "Connaught", "name": "Ireland West Knock", "country": "Ireland", "altitude": "665", "iata": "NOC", "longitude": "-8.818492", "icao": "EIKN", "latitude": "53.910297", "timezone": "0", "dst": "E"}, {"city": "Tanjung Pandan", "name": "H As Hanandjoeddin", "country": "Indonesia", "altitude": "164", "iata": "TJQ", "longitude": "107.754917", "icao": "WIOD", "latitude": "-2.745722", "timezone": "7", "dst": "N"}, {"city": "Helena", "name": "Helena Rgnl", "country": "United States", "altitude": "3877", "iata": "HLN", "longitude": "-111.98275", "icao": "KHLN", "latitude": "46.606806", "timezone": "-7", "dst": "A"}, {"city": "Tanjung Selor-Borneo Island", "name": "Tanjung Harapan Airport", "country": "Indonesia", "altitude": "10", "iata": "TJS", "longitude": "117.374", "icao": "WALG", "latitude": "2.83641", "timezone": "8", "dst": "N"}, {"city": "Kulyab", "name": "Kulob Airport", "country": "Tajikistan", "altitude": "2293", "iata": "TJU", "longitude": "69.799444", "icao": "UTDK", "latitude": "37.981667", "timezone": "5", "dst": "U"}, {"city": "Barysiai", "name": "Barysiai", "country": "Lithuania", "altitude": "270", "iata": "HLJ", "longitude": "23.558056", "icao": "EYSB", "latitude": "56.070556", "timezone": "2", "dst": "E"}, {"city": "Novokuznetsk", "name": "Spichenkovo Airport", "country": "Russia", "altitude": "1024", "iata": "NOZ", "longitude": "86.8772", "icao": "UNWW", "latitude": "53.8114", "timezone": "8", "dst": "N"}, {"city": "Ulanhot", "name": "Ulanhot Airport", "country": "China", "altitude": "0", "iata": "HLH", "longitude": "122.017", "icao": "ZBUL", "latitude": "46.083", "timezone": "8", "dst": "U"}, {"city": "Wheeling", "name": "Wheeling Ohio County Airport", "country": "United States", "altitude": "1195", "iata": "HLG", "longitude": "-80.6463", "icao": "\\N", "latitude": "40.175", "timezone": "-5", "dst": "A"}, {"city": "Hultsfred", "name": "Hultsfred", "country": "Sweden", "altitude": "366", "iata": "HLF", "longitude": "15.823333", "icao": "ESSF", "latitude": "57.525833", "timezone": "1", "dst": "E"}, {"city": "Huambo", "name": "Huambo", "country": "Angola", "altitude": "5587", "iata": "NOV", "longitude": "15.760547", "icao": "FNHU", "latitude": "-12.808878", "timezone": "1", "dst": "N"}, {"city": "Hailar", "name": "Dongshan", "country": "China", "altitude": "2169", "iata": "HLD", "longitude": "119.825", "icao": "ZBLA", "latitude": "49.204997", "timezone": "8", "dst": "U"}, {"city": "Johannesburg", "name": "Lanseria", "country": "South Africa", "altitude": "4517", "iata": "HLA", "longitude": "27.926133", "icao": "FALA", "latitude": "-25.938514", "timezone": "2", "dst": "U"}, {"city": "Nosy-be", "name": "Fascene", "country": "Madagascar", "altitude": "36", "iata": "NOS", "longitude": "48.314822", "icao": "FMNN", "latitude": "-13.312067", "timezone": "3", "dst": "U"}, {"city": "Aiken", "name": "Municipal Airport", "country": "United States", "altitude": "529", "iata": "AIK", "longitude": "-81.6850278", "icao": "KAIK", "latitude": "33.6493889", "timezone": "-5", "dst": "A"}, {"city": "Kenosha", "name": "Kenosha Regional Airport", "country": "United States", "altitude": "742", "iata": "ENW", "longitude": "-87.9278056", "icao": "\\N", "latitude": "42.5956944", "timezone": "-6", "dst": "A"}, {"city": "Fujeirah", "name": "Fujairah Intl", "country": "United Arab Emirates", "altitude": "152", "iata": "FJR", "longitude": "56.323964", "icao": "OMFJ", "latitude": "25.112225", "timezone": "4", "dst": "U"}, {"city": "Mandalay", "name": "Mandalay Intl", "country": "Burma", "altitude": "300", "iata": "MDL", "longitude": "95.977928", "icao": "VYMD", "latitude": "21.702156", "timezone": "6.5", "dst": "U"}, {"city": "Lake Murray", "name": "Lake Murray Airport", "country": "Papua New Guinea", "altitude": "52", "iata": "LMY", "longitude": "141.494", "icao": "", "latitude": "-7.00992", "timezone": "10", "dst": "U"}, {"city": "Merlo", "name": "Aeropuerto Internacional Valle del Conlara", "country": "Argentina", "altitude": "100", "iata": "RLO", "longitude": "-65.179932", "icao": "\\N", "latitude": "-32.349803", "timezone": "-3", "dst": "N"}, {"city": "Anchorage", "name": "Elmendorf Afb", "country": "United States", "altitude": "212", "iata": "EDF", "longitude": "-149.806503", "icao": "PAED", "latitude": "61.250986", "timezone": "-9", "dst": "A"}, {"city": "Bayannur", "name": "Bayannur", "country": "China", "altitude": "3389", "iata": "RLK", "longitude": "107.738889", "icao": "\\N", "latitude": "40.926389", "timezone": "8", "dst": "U"}, {"city": "Lampedusa", "name": "Lampedusa", "country": "Italy", "altitude": "70", "iata": "LMP", "longitude": "12.618083", "icao": "LICD", "latitude": "35.497914", "timezone": "1", "dst": "E"}, {"city": "Laage", "name": "Laage", "country": "Germany", "altitude": "138", "iata": "RLG", "longitude": "12.278333", "icao": "ETNL", "latitude": "53.918167", "timezone": "1", "dst": "E"}, {"city": "Edinburgh", "name": "Edinburgh", "country": "United Kingdom", "altitude": "135", "iata": "EDI", "longitude": "-3.3725", "icao": "EGPH", "latitude": "55.95", "timezone": "0", "dst": "E"}, {"city": "Klamath Falls", "name": "Klamath Falls Airport", "country": "United States", "altitude": "4095", "iata": "LMT", "longitude": "-121.733", "icao": "KLMT", "latitude": "42.1561", "timezone": "-8", "dst": "A"}, {"city": "Balikesir Korfez", "name": "Balikesir Korfez Airport", "country": "Turkey", "altitude": "50", "iata": "EDO", "longitude": "27.0138", "icao": "LTFD", "latitude": "39.5546", "timezone": "2", "dst": "E"}, {"city": "Eldoret", "name": "Eldoret Intl", "country": "Kenya", "altitude": "6941", "iata": "EDL", "longitude": "35.238928", "icao": "HKEL", "latitude": "0.404458", "timezone": "3", "dst": "U"}, {"city": "La Roche-sur-yon", "name": "Les Ajoncs", "country": "France", "altitude": "299", "iata": "EDM", "longitude": "-1.378625", "icao": "LFRI", "latitude": "46.701944", "timezone": "1", "dst": "E"}, {"city": "Pormpuraaw", "name": "Pormpuraaw Airport", "country": "Australia", "altitude": "10", "iata": "EDR", "longitude": "141.609", "icao": "YPMP", "latitude": "-14.8967", "timezone": "10", "dst": "O"}, {"city": "Lae", "name": "Lae Airport", "country": "Marshall Islands", "altitude": "10", "iata": "LML", "longitude": "166.265556", "icao": "\\N", "latitude": "8.921667", "timezone": "12", "dst": "U"}, {"city": "Edwards Afb", "name": "Edwards Afb", "country": "United States", "altitude": "2302", "iata": "EDW", "longitude": "-117.883739", "icao": "KEDW", "latitude": "34.905417", "timezone": "-8", "dst": "A"}, {"city": "Limbang", "name": "Limbang", "country": "Malaysia", "altitude": "14", "iata": "LMN", "longitude": "115.010439", "icao": "WBGJ", "latitude": "4.808303", "timezone": "8", "dst": "N"}, {"city": "Lossiemouth", "name": "Lossiemouth", "country": "United Kingdom", "altitude": "42", "iata": "LMO", "longitude": "-3.339169", "icao": "EGQS", "latitude": "57.705214", "timezone": "0", "dst": "E"}, {"city": "La Macarena", "name": "La Macarena", "country": "Colombia", "altitude": "10", "iata": "LMC", "longitude": "-73.7875", "icao": "\\N", "latitude": "2.179167", "timezone": "-5", "dst": "U"}, {"city": "Le Mans", "name": "Arnage", "country": "France", "altitude": "194", "iata": "LME", "longitude": "0.201667", "icao": "LFRM", "latitude": "47.948611", "timezone": "1", "dst": "E"}, {"city": "Denpasar", "name": "Bali Ngurah Rai", "country": "Indonesia", "altitude": "14", "iata": "DPS", "longitude": "115.167172", "icao": "WADD", "latitude": "-8.748169", "timezone": "8", "dst": "N"}, {"city": "West Chicago", "name": "Dupage", "country": "United States", "altitude": "758", "iata": "DPA", "longitude": "-88.248611", "icao": "KDPA", "latitude": "41.907778", "timezone": "-6", "dst": "A"}, {"city": "Devonport", "name": "Devonport Airport", "country": "Australia", "altitude": "33", "iata": "DPO", "longitude": "146.43", "icao": "YDPO", "latitude": "-41.1697", "timezone": "10", "dst": "O"}, {"city": "Dipolog", "name": "Dipolog", "country": "Philippines", "altitude": "12", "iata": "DPL", "longitude": "123.334481", "icao": "RPMG", "latitude": "8.601261", "timezone": "8", "dst": "N"}, {"city": "Pendicherry", "name": "Pondicherry", "country": "India", "altitude": "118", "iata": "PNY", "longitude": "79.810058", "icao": "VOPC", "latitude": "11.968722", "timezone": "5.5", "dst": "N"}, {"city": "Confresa", "name": "Confresa Airport", "country": "Brazil", "altitude": "250", "iata": "CFO", "longitude": "-51.567222", "icao": "SJHG", "latitude": "-10.633611", "timezone": "-4", "dst": "S"}, {"city": "Petrolina", "name": "Senador Nilo Coelho", "country": "Brazil", "altitude": "1263", "iata": "PNZ", "longitude": "-40.569097", "icao": "SBPL", "latitude": "-9.362411", "timezone": "-3", "dst": "S"}, {"city": "Pune", "name": "Pune", "country": "India", "altitude": "1942", "iata": "PNQ", "longitude": "73.919697", "icao": "VAPO", "latitude": "18.582111", "timezone": "5.5", "dst": "N"}, {"city": "Cienfuegos", "name": "Jaime Gonzalez", "country": "Cuba", "altitude": "102", "iata": "CFG", "longitude": "-80.414167", "icao": "MUCF", "latitude": "22.15", "timezone": "-5", "dst": "U"}, {"city": "Pensacola", "name": "Pensacola Rgnl", "country": "United States", "altitude": "121", "iata": "PNS", "longitude": "-87.186611", "icao": "KPNS", "latitude": "30.473425", "timezone": "-6", "dst": "A"}, {"city": "Clermont-Ferrand", "name": "Auvergne", "country": "France", "altitude": "1090", "iata": "CFE", "longitude": "3.169169", "icao": "LFLC", "latitude": "45.786661", "timezone": "1", "dst": "E"}, {"city": "Cabo Frio", "name": "Cabo Frio International Airport", "country": "Brazil", "altitude": "14", "iata": "CFB", "longitude": "-42.074167", "icao": "SBCB", "latitude": "-22.921667", "timezone": "-3", "dst": "S"}, {"city": "Puerto Natales", "name": "Puerto Natales", "country": "Chile", "altitude": "9", "iata": "PNT", "longitude": "-72.516667", "icao": "SCNT", "latitude": "-51.733333", "timezone": "-3", "dst": "S"}, {"city": "Panevezys", "name": "Pajuostis", "country": "Lithuania", "altitude": "197", "iata": "PNV", "longitude": "24.460833", "icao": "EYPP", "latitude": "55.729444", "timezone": "2", "dst": "E"}, {"city": "Pohnpei", "name": "Pohnpei Intl", "country": "Micronesia", "altitude": "10", "iata": "PNI", "longitude": "158.208989", "icao": "PTPN", "latitude": "6.9851", "timezone": "11", "dst": "U"}, {"city": "Phnom-penh", "name": "Phnom Penh Intl", "country": "Cambodia", "altitude": "40", "iata": "PNH", "longitude": "104.844139", "icao": "VDPP", "latitude": "11.546556", "timezone": "7", "dst": "U"}, {"city": "Pontianak", "name": "Supadio", "country": "Indonesia", "altitude": "10", "iata": "PNK", "longitude": "109.403892", "icao": "WIOO", "latitude": "-0.150711", "timezone": "7", "dst": "N"}, {"city": "Princeton", "name": "Princeton Muni", "country": "United States", "altitude": "979", "iata": "PNM", "longitude": "-93.608217", "icao": "KPNM", "latitude": "45.559868", "timezone": "-6", "dst": "A"}, {"city": "Pantelleria", "name": "Pantelleria", "country": "Italy", "altitude": "635", "iata": "PNL", "longitude": "11.968864", "icao": "LICG", "latitude": "36.816519", "timezone": "1", "dst": "E"}, {"city": "Cafayate", "name": "Gilberto Lavaque", "country": "Argentina", "altitude": "5523", "iata": "CFX", "longitude": "-65.932095", "icao": "SASC", "latitude": "-26.06245", "timezone": "-3", "dst": "S"}, {"city": "Pamplona", "name": "Pamplona", "country": "Spain", "altitude": "1504", "iata": "PNA", "longitude": "-1.646331", "icao": "LEPP", "latitude": "42.770039", "timezone": "1", "dst": "E"}, {"city": "Ponca City", "name": "Ponca City Rgnl", "country": "United States", "altitude": "1007", "iata": "PNC", "longitude": "-97.099781", "icao": "KPNC", "latitude": "36.731958", "timezone": "-6", "dst": "A"}, {"city": "Kerkyra/corfu", "name": "Ioannis Kapodistrias Intl", "country": "Greece", "altitude": "6", "iata": "CFU", "longitude": "19.911667", "icao": "LGKR", "latitude": "39.601944", "timezone": "2", "dst": "E"}, {"city": "Caen", "name": "Carpiquet", "country": "France", "altitude": "256", "iata": "CFR", "longitude": "-0.45", "icao": "LFRK", "latitude": "49.173333", "timezone": "1", "dst": "E"}, {"city": "Coff's Harbour", "name": "Coffs Harbour", "country": "Australia", "altitude": "18", "iata": "CFS", "longitude": "153.116389", "icao": "YSCH", "latitude": "-30.320556", "timezone": "10", "dst": "O"}, {"city": "Teller", "name": "Teller Airport", "country": "United States", "altitude": "294", "iata": "TLA", "longitude": "-166.339444", "icao": "PATE", "latitude": "65.240278", "timezone": "-9", "dst": "A"}, {"city": "Bandar Mahshahr", "name": "Mahshahr", "country": "Iran", "altitude": "8", "iata": "MRX", "longitude": "49.151879", "icao": "OIAM", "latitude": "30.556192", "timezone": "4", "dst": "E"}, {"city": "Monterey", "name": "Monterey Peninsula", "country": "United States", "altitude": "257", "iata": "MRY", "longitude": "-121.842944", "icao": "KMRY", "latitude": "36.587", "timezone": "-8", "dst": "A"}, {"city": "Moree", "name": "Moree Airport", "country": "Australia", "altitude": "701", "iata": "MRZ", "longitude": "149.845", "icao": "YMOR", "latitude": "-29.4989", "timezone": "10", "dst": "O"}, {"city": "Plaisance", "name": "Sir Seewoosagur Ramgoolam Intl", "country": "Mauritius", "altitude": "186", "iata": "MRU", "longitude": "57.6836", "icao": "FIMP", "latitude": "-20.430235", "timezone": "5", "dst": "N"}, {"city": "Mineralnye Vody", "name": "Mineralnyye Vody", "country": "Russia", "altitude": "1054", "iata": "MRV", "longitude": "43.081889", "icao": "URMM", "latitude": "44.225072", "timezone": "4", "dst": "N"}, {"city": "Gasan", "name": "Marinduque Airport", "country": "Philippines", "altitude": "32", "iata": "MRQ", "longitude": "121.825583", "icao": "RPUW", "latitude": "13.360967", "timezone": "8", "dst": "N"}, {"city": "Marseille", "name": "Provence", "country": "France", "altitude": "74", "iata": "MRS", "longitude": "5.213611", "icao": "LFML", "latitude": "43.435555", "timezone": "1", "dst": "E"}, {"city": "Morganton", "name": "Foothills Regional Airport", "country": "United States", "altitude": "1270", "iata": "MRN", "longitude": "-81.6115119", "icao": "KMRN", "latitude": "35.8202336", "timezone": "-4", "dst": "A"}, {"city": "Masterton", "name": "Masterton", "country": "New Zealand", "altitude": "364", "iata": "MRO", "longitude": "175.633611", "icao": "NZMS", "latitude": "-40.973333", "timezone": "12", "dst": "Z"}, {"city": "Anchorage", "name": "Merrill Fld", "country": "United States", "altitude": "137", "iata": "MRI", "longitude": "-149.844447", "icao": "PAMR", "latitude": "61.213544", "timezone": "-9", "dst": "A"}, {"city": "Marco Island Airport", "name": "Marco Islands", "country": "United States", "altitude": "5", "iata": "MRK", "longitude": "-81.6725278", "icao": "KMKY", "latitude": "25.9950278", "timezone": "-5", "dst": "A"}, {"city": "Merida", "name": "Alberto Carnevalli", "country": "Venezuela", "altitude": "5007", "iata": "MRD", "longitude": "-71.161186", "icao": "SVMD", "latitude": "8.582294", "timezone": "-4", "dst": "U"}, {"city": "Masai Mara", "name": "Mara Serena Airport", "country": "Kenya", "altitude": "500", "iata": "MRE", "longitude": "35.008056", "icao": "\\N", "latitude": "-1.406111", "timezone": "3", "dst": "U"}, {"city": "Misratah", "name": "Misratah Airport", "country": "Libya", "altitude": "60", "iata": "MRA", "longitude": "15.061", "icao": "", "latitude": "32.325", "timezone": "1", "dst": "N"}, {"city": "Martinsburg", "name": "Eastern WV Regional Airport", "country": "United States", "altitude": "554", "iata": "MRB", "longitude": "-77.591", "icao": "KMRB", "latitude": "39.2407", "timezone": "-5", "dst": "A"}, {"city": "ZAPALA", "name": "ZAPALA", "country": "Argentina", "altitude": "3330", "iata": "APZ", "longitude": "-70.113581", "icao": "SAHZ", "latitude": "-38.9755", "timezone": "-3", "dst": "N"}, {"city": "Faleolo", "name": "Faleolo Intl", "country": "Samoa", "altitude": "58", "iata": "APW", "longitude": "-172.008336", "icao": "NSFA", "latitude": "-13.829969", "timezone": "-11", "dst": "U"}, {"city": "Apataki", "name": "Apataki Airport", "country": "French Polynesia", "altitude": "8", "iata": "APK", "longitude": "-146.415", "icao": "NTGD", "latitude": "-15.5736", "timezone": "-10", "dst": "U"}, {"city": "Alpena", "name": "Alpena County Regional Airport", "country": "United States", "altitude": "689", "iata": "APN", "longitude": "-83.5603", "icao": "KAPN", "latitude": "45.0781", "timezone": "-5", "dst": "A"}, {"city": "Apartad\u00f3", "name": "Apartad\u00f3 Airport", "country": "Colombia", "altitude": "0", "iata": "APO", "longitude": "-77.2", "icao": "", "latitude": "7.033", "timezone": "-5", "dst": "U"}, {"city": "Nampula", "name": "Nampula", "country": "Mozambique", "altitude": "1444", "iata": "APL", "longitude": "39.2818", "icao": "FQNP", "latitude": "-15.105611", "timezone": "2", "dst": "U"}, {"city": "Jinzhou", "name": "Jinzhou Airport", "country": "China", "altitude": "0", "iata": "JNZ", "longitude": "121.062", "icao": "ZYJZ", "latitude": "41.1014", "timezone": "8", "dst": "U"}, {"city": "Napa", "name": "Napa County Airport", "country": "United States", "altitude": "35", "iata": "APC", "longitude": "-122.2806944", "icao": "KAPC", "latitude": "38.2131944", "timezone": "-7", "dst": "A"}, {"city": "Denver", "name": "Centennial", "country": "United States", "altitude": "5883", "iata": "APA", "longitude": "-104.849294", "icao": "KAPA", "latitude": "39.570129", "timezone": "-7", "dst": "A"}, {"city": "Naples", "name": "Naples Muni", "country": "United States", "altitude": "8", "iata": "APF", "longitude": "-81.775294", "icao": "KAPF", "latitude": "26.152619", "timezone": "-5", "dst": "A"}, {"city": "Aberdeen", "name": "Phillips Aaf", "country": "United States", "altitude": "57", "iata": "APG", "longitude": "-76.168808", "icao": "KAPG", "latitude": "39.466219", "timezone": "-5", "dst": "A"}, {"city": "Port Macquarie", "name": "Port Macquarie Airport", "country": "Australia", "altitude": "12", "iata": "PQQ", "longitude": "152.863", "icao": "YPMQ", "latitude": "-31.4358", "timezone": "10", "dst": "O"}, {"city": "Komsomolsk-on-Amur", "name": "Komsomolsk-on-Amur Airport", "country": "Russia", "altitude": "92", "iata": "KXK", "longitude": "136.934", "icao": "UHKK", "latitude": "50.4094", "timezone": "11", "dst": "N"}, {"city": "Koro Island", "name": "Koro Island Airport", "country": "Fiji", "altitude": "358", "iata": "KXF", "longitude": "179.422", "icao": "NFNO", "latitude": "-17.3458", "timezone": "12", "dst": "U"}, {"city": "St. Anthony", "name": "St Anthony", "country": "Canada", "altitude": "108", "iata": "YAY", "longitude": "-56.083056", "icao": "CYAY", "latitude": "51.391944", "timezone": "-4", "dst": "A"}, {"city": "Angling Lake", "name": "Wapekeka Airport", "country": "Canada", "altitude": "712", "iata": "YAX", "longitude": "-89.5794", "icao": "CKB6", "latitude": "53.8492", "timezone": "-5", "dst": "A"}, {"city": "Tofino", "name": "Tofino", "country": "Canada", "altitude": "80", "iata": "YAZ", "longitude": "-125.7725", "icao": "CYAZ", "latitude": "49.082222", "timezone": "-8", "dst": "A"}, {"city": "Attawapiskat", "name": "Attawapiskat Airport", "country": "Canada", "altitude": "31", "iata": "YAT", "longitude": "-82.4319", "icao": "CYAT", "latitude": "52.9275", "timezone": "-5", "dst": "A"}, {"city": "Halifax", "name": "Shearwater", "country": "Canada", "altitude": "167", "iata": "YAW", "longitude": "-63.499444", "icao": "CYAW", "latitude": "44.639721", "timezone": "-4", "dst": "A"}, {"city": "Winnipeg", "name": "Winnipeg St Andrews", "country": "Canada", "altitude": "760", "iata": "YAV", "longitude": "-97.0325", "icao": "CYAV", "latitude": "50.056389", "timezone": "-6", "dst": "A"}, {"city": "Yap", "name": "Yap Intl", "country": "Micronesia", "altitude": "91", "iata": "YAP", "longitude": "138.082497", "icao": "PTYA", "latitude": "9.498911", "timezone": "10", "dst": "U"}, {"city": "Sault Sainte Marie", "name": "Sault Ste Marie", "country": "Canada", "altitude": "630", "iata": "YAM", "longitude": "-84.509445", "icao": "CYAM", "latitude": "46.485001", "timezone": "-5", "dst": "A"}, {"city": "Yaounde", "name": "Yaounde Ville", "country": "Cameroon", "altitude": "2464", "iata": "YAO", "longitude": "11.523461", "icao": "FKKY", "latitude": "3.836039", "timezone": "1", "dst": "N"}, {"city": "Lakeland", "name": "South Lakeland Airport", "country": "United States", "altitude": "110", "iata": "X49", "longitude": "-82.0439739", "icao": "\\N", "latitude": "27.9333581", "timezone": "-5", "dst": "A"}, {"city": "Yakutat", "name": "Yakutat", "country": "United States", "altitude": "33", "iata": "YAK", "longitude": "-139.3937", "icao": "PAYA", "latitude": "59.3012", "timezone": "-9", "dst": "A"}, {"city": "Fort Frances", "name": "Fort Frances Municipal Airport", "country": "Canada", "altitude": "1125", "iata": "YAG", "longitude": "-93.4397", "icao": "CYAG", "latitude": "48.6542", "timezone": "-6", "dst": "A"}, {"city": "Anahim Lake", "name": "Anahim Lake Airport", "country": "Canada", "altitude": "3635", "iata": "YAA", "longitude": "-125.303", "icao": "CAJ4", "latitude": "52.4525", "timezone": "-8", "dst": "A"}, {"city": "Cat Lake", "name": "Cat Lake Airport", "country": "Canada", "altitude": "1344", "iata": "YAC", "longitude": "-91.8244", "icao": "CYAC", "latitude": "51.7272", "timezone": "-6", "dst": "A"}, {"city": "Arctic Bay", "name": "Arctic Bay Airport", "country": "Canada", "altitude": "72", "iata": "YAB", "longitude": "-85.047222", "icao": "CJX7", "latitude": "73.006389", "timezone": "-5", "dst": "A"}, {"city": "Bucyrus", "name": "Port Bucyrus-Crawford County Airport", "country": "United States", "altitude": "1003", "iata": "17G", "longitude": "-82.9748056", "icao": "\\N", "latitude": "40.7815556", "timezone": "-5", "dst": "A"}, {"city": "Cali", "name": "Alfonso Bonilla Aragon Intl", "country": "Colombia", "altitude": "3162", "iata": "CLO", "longitude": "-76.381583", "icao": "SKCL", "latitude": "3.543222", "timezone": "-5", "dst": "U"}, {"city": "Imphal", "name": "Imphal", "country": "India", "altitude": "2540", "iata": "IMF", "longitude": "93.896697", "icao": "VEIM", "latitude": "24.75995", "timezone": "5.5", "dst": "N"}, {"city": "Carlsbad", "name": "McClellan-Palomar Airport", "country": "United States", "altitude": "328", "iata": "CLD", "longitude": "-117.1648", "icao": "KCRQ", "latitude": "33.0742", "timezone": "-8", "dst": "A"}, {"city": "Plovdiv", "name": "Plovdiv", "country": "Bulgaria", "altitude": "597", "iata": "PDV", "longitude": "24.850833", "icao": "LBPD", "latitude": "42.067806", "timezone": "2", "dst": "E"}, {"city": "Can Tho", "name": "Tr\u00e0 N\u00f3c Airport", "country": "Vietnam", "altitude": "9", "iata": "VCA", "longitude": "105.711922", "icao": "VVCT", "latitude": "10.085119", "timezone": "7", "dst": "U"}, {"city": "Victoria River Downs", "name": "Victoria River Downs Airport", "country": "Australia", "altitude": "89", "iata": "VCD", "longitude": "131.002", "icao": "YVRD", "latitude": "-16.4033", "timezone": "9.5", "dst": "O"}, {"city": "Venice", "name": "Venezia Tessera", "country": "Italy", "altitude": "7", "iata": "VCE", "longitude": "12.351944", "icao": "LIPZ", "latitude": "45.505278", "timezone": "1", "dst": "E"}, {"city": "Immokalee ", "name": "Immokalee ", "country": "United States", "altitude": "37", "iata": "IMM", "longitude": "-81.401389", "icao": "KIMM", "latitude": "26.433889", "timezone": "-5", "dst": "A"}, {"city": "Chu Lai", "name": "Chu Lai", "country": "Vietnam", "altitude": "10", "iata": "VCL", "longitude": "108.705889", "icao": "VVCA", "latitude": "15.405944", "timezone": "7", "dst": "U"}, {"city": "Campinas", "name": "Viracopos", "country": "Brazil", "altitude": "2170", "iata": "VCP", "longitude": "-47.134444", "icao": "SBKP", "latitude": "-23.0075", "timezone": "-3", "dst": "S"}, {"city": "Conson", "name": "Co Ong Airport", "country": "Vietnam", "altitude": "20", "iata": "VCS", "longitude": "106.632589", "icao": "VVCS", "latitude": "8.731831", "timezone": "7", "dst": "U"}, {"city": "Victoria", "name": "Victoria Regional Airport", "country": "United States", "altitude": "115", "iata": "VCT", "longitude": "-96.9185", "icao": "KVCT", "latitude": "28.8526", "timezone": "-6", "dst": "A"}, {"city": "Victorville", "name": "Southern California Logistics", "country": "United States", "altitude": "2885", "iata": "VCV", "longitude": "-117.382997", "icao": "KVCV", "latitude": "34.597453", "timezone": "-8", "dst": "A"}, {"city": "Clear Lake City", "name": "Clear Lake Metroport", "country": "United States", "altitude": "35", "iata": "CLC", "longitude": "-95.137497", "icao": "\\N", "latitude": "29.5569", "timezone": "6", "dst": "A"}, {"city": "Aleknagik", "name": "Aleknagik Airport", "country": "United States", "altitude": "66", "iata": "WKK", "longitude": "-158.618", "icao": "5A8", "latitude": "59.2826", "timezone": "-9", "dst": "A"}, {"city": "Wakkanai", "name": "Wakkanai", "country": "Japan", "altitude": "30", "iata": "WKJ", "longitude": "141.800833", "icao": "RJCW", "latitude": "45.404167", "timezone": "9", "dst": "U"}, {"city": "Hwange National Park", "name": "Hwange National Park", "country": "Zimbabwe", "altitude": "3543", "iata": "WKM", "longitude": "27.021042", "icao": "FVWN", "latitude": "-18.629872", "timezone": "2", "dst": "U"}, {"city": "Waikoloa Village", "name": "Waikoloa Heliport", "country": "United States", "altitude": "109", "iata": "WKL", "longitude": "-155.864", "icao": "HI07", "latitude": "19.9136", "timezone": "-10", "dst": "N"}, {"city": "Wanaka", "name": "Wanaka", "country": "New Zealand", "altitude": "1142", "iata": "WKA", "longitude": "169.245556", "icao": "NZWF", "latitude": "-44.722222", "timezone": "12", "dst": "Z"}, {"city": "East Stroudsburg", "name": "Stroudsburg-Pocono Airport", "country": "United States", "altitude": "480", "iata": "N53", "longitude": "-75.1606789", "icao": "\\N", "latitude": "41.0358717", "timezone": "-5", "dst": "A"}, {"city": "Calvi", "name": "Saint Catherine", "country": "France", "altitude": "209", "iata": "CLY", "longitude": "8.793189", "icao": "LFKC", "latitude": "42.530753", "timezone": "1", "dst": "E"}, {"city": "Padang", "name": "Minangkabau", "country": "Indonesia", "altitude": "9", "iata": "PDG", "longitude": "100.351881", "icao": "WIPT", "latitude": "-0.874989", "timezone": "7", "dst": "N"}, {"city": "Pedro Bay", "name": "Pedro Bay Airport", "country": "United States", "altitude": "45", "iata": "PDB", "longitude": "-154.1325", "icao": "\\N", "latitude": "59.782222", "timezone": "-9", "dst": "A"}, {"city": "Jan Mayen", "name": "Jan Mayensfield", "country": "Norway", "altitude": "33", "iata": "ZXB", "longitude": "-8.575833", "icao": "ENJA", "latitude": "70.961111", "timezone": "1", "dst": "E"}, {"city": "Edinburgh", "name": "Edinburgh Waverly Station", "country": "United Kingdom", "altitude": "0", "iata": "ZXE", "longitude": "-3.189", "icao": "\\N", "latitude": "55.952", "timezone": "0", "dst": "U"}, {"city": "Tucson", "name": "Davis Monthan Afb", "country": "United States", "altitude": "2704", "iata": "DMA", "longitude": "-110.883144", "icao": "KDMA", "latitude": "32.166467", "timezone": "-7", "dst": "A"}, {"city": "Dzhambul", "name": "Taraz", "country": "Kazakhstan", "altitude": "2184", "iata": "DMB", "longitude": "71.303611", "icao": "UADD", "latitude": "42.853611", "timezone": "6", "dst": "U"}, {"city": "Doomadgee", "name": "Doomadgee Airport", "country": "Australia", "altitude": "153", "iata": "DMD", "longitude": "138.822", "icao": "YDMG", "latitude": "-17.9403", "timezone": "10", "dst": "O"}, {"city": "Moscow", "name": "Domododevo", "country": "Russia", "altitude": "588", "iata": "DME", "longitude": "37.906111", "icao": "UUDD", "latitude": "55.408611", "timezone": "4", "dst": "N"}, {"city": "Bangkok", "name": "Don Muang Intl", "country": "Thailand", "altitude": "9", "iata": "DMK", "longitude": "100.60675", "icao": "VTBD", "latitude": "13.912583", "timezone": "7", "dst": "U"}, {"city": "Dammam", "name": "King Fahd Intl", "country": "Saudi Arabia", "altitude": "72", "iata": "DMM", "longitude": "49.79789", "icao": "OEDF", "latitude": "26.471161", "timezone": "3", "dst": "U"}, {"city": "Diamantino", "name": "Diamantino Airport", "country": "Brazil", "altitude": "1837", "iata": "DMT", "longitude": "-56.445833", "icao": "SWDM", "latitude": "-14.408889", "timezone": "-4", "dst": "S"}, {"city": "Dimapur", "name": "Dimapur Airport", "country": "India", "altitude": "487", "iata": "DMU", "longitude": "93.7711", "icao": "VEMR", "latitude": "25.8839", "timezone": "5.5", "dst": "N"}, {"city": "Tomah", "name": "Bloyer Field", "country": "United States", "altitude": "966", "iata": "Y72", "longitude": "-90.4806111", "icao": "\\N", "latitude": "43.9762222", "timezone": "-6", "dst": "A"}, {"city": "Jerez", "name": "Jerez", "country": "Spain", "altitude": "93", "iata": "XRY", "longitude": "-6.060111", "icao": "LEJR", "latitude": "36.744622", "timezone": "1", "dst": "E"}, {"city": "Poso", "name": "Kasiguncu", "country": "Indonesia", "altitude": "174", "iata": "PSJ", "longitude": "120.657669", "icao": "WAMP", "latitude": "-1.416753", "timezone": "8", "dst": "N"}, {"city": "Sankt Peter-Ording", "name": "St. Peter-Ording Airport", "country": "Germany", "altitude": "7", "iata": "PSH", "longitude": "8.68694", "icao": "EDXO", "latitude": "54.3089", "timezone": "1", "dst": "E"}, {"city": "Pasni", "name": "Pasni", "country": "Pakistan", "altitude": "33", "iata": "PSI", "longitude": "63.345083", "icao": "OPPI", "latitude": "25.290487", "timezone": "5", "dst": "N"}, {"city": "Pasto", "name": "Antonio Narino", "country": "Colombia", "altitude": "5951", "iata": "PSO", "longitude": "-77.291478", "icao": "SKPS", "latitude": "1.396247", "timezone": "-5", "dst": "U"}, {"city": "Perth", "name": "Perth Scone Airport", "country": "United Kingdom", "altitude": "392", "iata": "PSL", "longitude": "-3.371389", "icao": "EGPT", "latitude": "56.439722", "timezone": "0", "dst": "E"}, {"city": "Jabalpur", "name": "Jabalpur", "country": "India", "altitude": "1624", "iata": "JLR", "longitude": "80.052047", "icao": "VAJB", "latitude": "23.177817", "timezone": "5.5", "dst": "N"}, {"city": "Pasco", "name": "Tri Cities Airport", "country": "United States", "altitude": "410", "iata": "PSC", "longitude": "-119.119", "icao": "PSC", "latitude": "46.2647", "timezone": "-8", "dst": "A"}, {"city": "Pisa", "name": "Pisa", "country": "Italy", "altitude": "6", "iata": "PSA", "longitude": "10.39275", "icao": "LIRP", "latitude": "43.683917", "timezone": "1", "dst": "E"}, {"city": "Petersburg", "name": "Petersburg James A. Johnson", "country": "United States", "altitude": "105", "iata": "PSG", "longitude": "-132.945278", "icao": "PAPG", "latitude": "56.801667", "timezone": "-9", "dst": "A"}, {"city": "Port Said", "name": "Port Said", "country": "Egypt", "altitude": "8", "iata": "PSD", "longitude": "32.24", "icao": "HEPS", "latitude": "31.279444", "timezone": "2", "dst": "U"}, {"city": "Ponce", "name": "Mercedita", "country": "Puerto Rico", "altitude": "29", "iata": "PSE", "longitude": "-66.563028", "icao": "TJPS", "latitude": "18.008306", "timezone": "-4", "dst": "U"}, {"city": "Puerto Suarez", "name": "Tte De Av Salvador Ogaya G", "country": "Bolivia", "altitude": "439", "iata": "PSZ", "longitude": "-57.820586", "icao": "SLPS", "latitude": "-18.975281", "timezone": "-4", "dst": "U"}, {"city": "Landskrona", "name": "Landskrona", "country": "Sweden", "altitude": "194", "iata": "JLD", "longitude": "12.869444", "icao": "ESML", "latitude": "55.944444", "timezone": "1", "dst": "E"}, {"city": "Palacios", "name": "Palacios Muni", "country": "United States", "altitude": "14", "iata": "PSX", "longitude": "-96.250958", "icao": "KPSX", "latitude": "28.727508", "timezone": "-6", "dst": "A"}, {"city": "Stanley", "name": "Stanley Airport", "country": "Falkland Islands", "altitude": "75", "iata": "PSY", "longitude": "-57.777644", "icao": "SFAL", "latitude": "-51.685672", "timezone": "-4", "dst": "U"}, {"city": "Pescara", "name": "Pescara", "country": "Italy", "altitude": "48", "iata": "PSR", "longitude": "14.181067", "icao": "LIBP", "latitude": "42.431656", "timezone": "1", "dst": "E"}, {"city": "Posadas", "name": "Posadas", "country": "Argentina", "altitude": "430", "iata": "PSS", "longitude": "-55.970728", "icao": "SARP", "latitude": "-27.385839", "timezone": "-3", "dst": "N"}, {"city": "Palm Springs", "name": "Palm Springs Intl", "country": "United States", "altitude": "477", "iata": "PSP", "longitude": "-116.506694", "icao": "KPSP", "latitude": "33.829667", "timezone": "-8", "dst": "A"}, {"city": "Joplin", "name": "Joplin Rgnl", "country": "United States", "altitude": "981", "iata": "JLN", "longitude": "-94.498269", "icao": "KJLN", "latitude": "37.151814", "timezone": "-6", "dst": "A"}, {"city": "Papa Stour", "name": "Papa Stour Airport", "country": "United Kingdom", "altitude": "0", "iata": "PSV", "longitude": "-1.69306", "icao": "", "latitude": "60.3217", "timezone": "0", "dst": "E"}, {"city": "Putussibau-Borneo Island", "name": "Pangsuma Airport", "country": "Indonesia", "altitude": "297", "iata": "PSU", "longitude": "112.937144", "icao": "WIOP", "latitude": "0.835578", "timezone": "7", "dst": "N"}, {"city": "Hanamaki", "name": "Hanamaki", "country": "Japan", "altitude": "297", "iata": "HNA", "longitude": "141.135278", "icao": "RJSI", "latitude": "39.428611", "timezone": "9", "dst": "U"}, {"city": "Bacau", "name": "Bacau", "country": "Romania", "altitude": "607", "iata": "BCM", "longitude": "26.910278", "icao": "LRBC", "latitude": "46.521946", "timezone": "2", "dst": "E"}, {"city": "Barcelona", "name": "Barcelona", "country": "Spain", "altitude": "12", "iata": "BCN", "longitude": "2.078464", "icao": "LEBL", "latitude": "41.297078", "timezone": "1", "dst": "E"}, {"city": "Baco", "name": "Baco Airport", "country": "Ethiopia", "altitude": "0", "iata": "BCO", "longitude": "36.562", "icao": "HABC", "latitude": "5.78287", "timezone": "3", "dst": "U"}, {"city": "Tokyo", "name": "Tokyo Intl", "country": "Japan", "altitude": "35", "iata": "HND", "longitude": "139.779694", "icao": "RJTT", "latitude": "35.552258", "timezone": "9", "dst": "U"}, {"city": "Bacolod", "name": "Bacolod", "country": "Philippines", "altitude": "25", "iata": "BCD", "longitude": "122.929617", "icao": "RPVB", "latitude": "10.642511", "timezone": "8", "dst": "N"}, {"city": "Hoonah", "name": "Hoonah Airport", "country": "United States", "altitude": "19", "iata": "HNH", "longitude": "-135.409722", "icao": "PAOH", "latitude": "58.096111", "timezone": "-9", "dst": "A"}, {"city": "Hana", "name": "Hana", "country": "United States", "altitude": "78", "iata": "HNM", "longitude": "-156.014439", "icao": "PHHN", "latitude": "20.795636", "timezone": "-10", "dst": "A"}, {"city": "Baracoa Playa", "name": "Gustavo Rizo", "country": "Cuba", "altitude": "26", "iata": "BCA", "longitude": "-74.506206", "icao": "MUBA", "latitude": "20.365317", "timezone": "-5", "dst": "U"}, {"city": "Haines", "name": "Haines Airport", "country": "United States", "altitude": "15", "iata": "HNS", "longitude": "-135.524", "icao": "PAHN", "latitude": "59.2438", "timezone": "-9", "dst": "A"}, {"city": "Boca Raton", "name": "Boca Raton", "country": "United States", "altitude": "13", "iata": "BCT", "longitude": "-80.107694", "icao": "KBCT", "latitude": "26.3785", "timezone": "-5", "dst": "A"}, {"city": "Belmopan", "name": "Hector Silva Airstrip", "country": "Belize", "altitude": "50", "iata": "BCV", "longitude": "-88.776111", "icao": "\\N", "latitude": "17.269444", "timezone": "-6", "dst": "U"}, {"city": "Benguera Island", "name": "Benguera Island Airport", "country": "Mozambique", "altitude": "50", "iata": "BCW", "longitude": "35.436944", "icao": "\\N", "latitude": "-21.849167", "timezone": "2", "dst": "U"}, {"city": "Santa Rosa", "name": "Santa Rosa Airport", "country": "Brazil", "altitude": "984", "iata": "SRA", "longitude": "-54.5204", "icao": "SSZR", "latitude": "-27.9067", "timezone": "-3", "dst": "S"}, {"city": "Semarang", "name": "Achmad Yani", "country": "Indonesia", "altitude": "13", "iata": "SRG", "longitude": "110.374122", "icao": "WARS", "latitude": "-6.971447", "timezone": "7", "dst": "N"}, {"city": "Sucre", "name": "Juana Azurduy De Padilla", "country": "Bolivia", "altitude": "9527", "iata": "SRE", "longitude": "-65.288747", "icao": "SLSU", "latitude": "-19.007083", "timezone": "-4", "dst": "U"}, {"city": "San Borja", "name": "Capit\u00e1n Av. German Quiroga G. Airport", "country": "Bolivia", "altitude": "633", "iata": "SRJ", "longitude": "-66.7375", "icao": "SLSB", "latitude": "-14.8592", "timezone": "-4", "dst": "U"}, {"city": "Sarh", "name": "Sarh Airport", "country": "Chad", "altitude": "1198", "iata": "SRH", "longitude": "18.3744", "icao": "FTTA", "latitude": "9.14444", "timezone": "1", "dst": "N"}, {"city": "Samarinda", "name": "Temindung", "country": "Indonesia", "altitude": "33", "iata": "SRI", "longitude": "117.157111", "icao": "WALS", "latitude": "-0.484531", "timezone": "8", "dst": "N"}, {"city": "Strahan", "name": "Strahan Airport", "country": "Australia", "altitude": "20", "iata": "SRN", "longitude": "145.292", "icao": "YSRN", "latitude": "-42.155", "timezone": "10", "dst": "O"}, {"city": "Ruidoso", "name": "Sierra Blanca Regional Airport", "country": "United States", "altitude": "6814", "iata": "SRR", "longitude": "-105.534751", "icao": "KSRR", "latitude": "33.46285", "timezone": "-7", "dst": "A"}, {"city": "Stord", "name": "Sorstokken", "country": "Norway", "altitude": "160", "iata": "SRP", "longitude": "5.34085", "icao": "ENSO", "latitude": "59.791925", "timezone": "1", "dst": "E"}, {"city": "Sarasota", "name": "Sarasota Bradenton Intl", "country": "United States", "altitude": "30", "iata": "SRQ", "longitude": "-82.554389", "icao": "KSRQ", "latitude": "27.395444", "timezone": "-5", "dst": "A"}, {"city": "Stony River", "name": "Stony River 2 Airport", "country": "United States", "altitude": "230", "iata": "SRV", "longitude": "-156.591111", "icao": "\\N", "latitude": "61.7875", "timezone": "-9", "dst": "A"}, {"city": "Soroti", "name": "Soroti", "country": "Uganda", "altitude": "3641", "iata": "SRT", "longitude": "33.622861", "icao": "HUSO", "latitude": "1.727578", "timezone": "3", "dst": "U"}, {"city": "Santa Cruz", "name": "Santa Cruz", "country": "Bolivia", "altitude": "1224", "iata": "SRZ", "longitude": "-63.166667", "icao": "\\N", "latitude": "-17.8", "timezone": "-4", "dst": "U"}, {"city": "Sirt", "name": "Gardabya Airport", "country": "Libya", "altitude": "267", "iata": "SRX", "longitude": "16.595", "icao": "HLGD", "latitude": "31.0635", "timezone": "1", "dst": "N"}, {"city": "Dasht-e-naz", "name": "Sari Dasht E Naz Airport", "country": "Iran", "altitude": "35", "iata": "SRY", "longitude": "53.193611", "icao": "OINZ", "latitude": "36.635833", "timezone": "3.5", "dst": "E"}, {"city": "Novorossiysk", "name": "Krymsk", "country": "Russia", "altitude": "50", "iata": "NOI", "longitude": "37.7779", "icao": "\\N", "latitude": "44.4016", "timezone": "4", "dst": "N"}, {"city": "Taldykorgan", "name": "Taldykorgan Airport", "country": "Kazakhstan", "altitude": "1969", "iata": "TDK", "longitude": "78.366667", "icao": "UAAT", "latitude": "45.016667", "timezone": "6", "dst": "U"}, {"city": "Angelsey", "name": "Anglesey Airport", "country": "United Kingdom", "altitude": "37", "iata": "HLY", "longitude": "-4.535339", "icao": "EGOV", "latitude": "53.248097", "timezone": "0", "dst": "E"}, {"city": "Tandil", "name": "Tandil", "country": "Argentina", "altitude": "574", "iata": "TDL", "longitude": "-59.227922", "icao": "SAZT", "latitude": "-37.237392", "timezone": "-3", "dst": "N"}, {"city": "Tandag", "name": "Tandag Airport", "country": "Philippines", "altitude": "16", "iata": "TDG", "longitude": "126.171", "icao": "RPMW", "latitude": "9.07211", "timezone": "8", "dst": "N"}, {"city": "Forest Lake", "name": "Forest Lake Airport", "country": "United States", "altitude": "925", "iata": "25D", "longitude": "-92.9943853", "icao": "\\N", "latitude": "45.2477456", "timezone": "-5", "dst": "A"}, {"city": "Trinidad", "name": "Tte Av Jorge Henrich Arauz", "country": "Bolivia", "altitude": "509", "iata": "TDD", "longitude": "-64.918019", "icao": "SLTR", "latitude": "-14.818739", "timezone": "-4", "dst": "U"}, {"city": "Trat", "name": "Trat", "country": "Thailand", "altitude": "105", "iata": "TDX", "longitude": "102.318958", "icao": "VTBO", "latitude": "12.274572", "timezone": "7", "dst": "U"}, {"city": "Daman", "name": "Daman", "country": "India", "altitude": "33", "iata": "NMB", "longitude": "72.843206", "icao": "VADN", "latitude": "20.434364", "timezone": "5.5", "dst": "N"}, {"city": "Namangan", "name": "Namangan Airport", "country": "Uzbekistan", "altitude": "1555", "iata": "NMA", "longitude": "71.5567", "icao": "UTKN", "latitude": "40.9846", "timezone": "5", "dst": "U"}, {"city": "Theodore", "name": "Theodore", "country": "Australia", "altitude": "560", "iata": "TDR", "longitude": "150.093112", "icao": "YTDR", "latitude": "-24.986737", "timezone": "10", "dst": "N"}, {"city": "Fort McMurray", "name": "Fort McMurray - Mildred Lake Airport", "country": "Canada", "altitude": "1046", "iata": "NML", "longitude": "-111.573997", "icao": "\\N", "latitude": "57.055599", "timezone": "-7", "dst": "A"}, {"city": "Meridian", "name": "Meridian Nas", "country": "United States", "altitude": "317", "iata": "NMM", "longitude": "-88.555557", "icao": "KNMM", "latitude": "32.552083", "timezone": "-6", "dst": "A"}, {"city": "Hamilton", "name": "Hamilton Airport", "country": "Australia", "altitude": "803", "iata": "HLT", "longitude": "142.065278", "icao": "YHML", "latitude": "-37.648889", "timezone": "10", "dst": "O"}, {"city": "Longana", "name": "Longana Airport", "country": "Vanuatu", "altitude": "167", "iata": "LOD", "longitude": "167.967", "icao": "NVSG", "latitude": "-15.3067", "timezone": "11", "dst": "U"}, {"city": "Loei", "name": "Loei", "country": "Thailand", "altitude": "860", "iata": "LOE", "longitude": "101.722064", "icao": "VTUL", "latitude": "17.439133", "timezone": "7", "dst": "U"}, {"city": "Lodwar", "name": "Lodwar", "country": "Kenya", "altitude": "1715", "iata": "LOK", "longitude": "35.608692", "icao": "HKLO", "latitude": "3.121967", "timezone": "3", "dst": "U"}, {"city": "La Toma (Catamayo)", "name": "Camilo Ponce Enriquez Airport", "country": "Ecuador", "altitude": "4056", "iata": "LOH", "longitude": "-79.3719", "icao": "SETM", "latitude": "-3.99589", "timezone": "-5", "dst": "U"}, {"city": "London", "name": "All Airports", "country": "United Kingdom", "altitude": "66", "iata": "LON", "longitude": "-0.127778", "icao": "\\N", "latitude": "51.508056", "timezone": "0", "dst": "E"}, {"city": "Laghouat", "name": "Laghouat", "country": "Algeria", "altitude": "2510", "iata": "LOO", "longitude": "2.928344", "icao": "DAUL", "latitude": "33.764383", "timezone": "1", "dst": "N"}, {"city": "Nowra", "name": "Nowra Airport", "country": "Australia", "altitude": "400", "iata": "NOA", "longitude": "150.537", "icao": "YSNW", "latitude": "-34.9489", "timezone": "10", "dst": "O"}, {"city": "Lagos", "name": "Murtala Muhammed", "country": "Nigeria", "altitude": "135", "iata": "LOS", "longitude": "3.321156", "icao": "DNMM", "latitude": "6.577369", "timezone": "1", "dst": "N"}, {"city": "Praya", "name": "Lombok International Airport", "country": "Indonesia", "altitude": "52", "iata": "LOP", "longitude": "116.276675", "icao": "WADL", "latitude": "-8.7573222", "timezone": "8", "dst": "N"}, {"city": "Monclova", "name": "Monclova Intl", "country": "Mexico", "altitude": "1864", "iata": "LOV", "longitude": "-101.470136", "icao": "MMMV", "latitude": "26.955733", "timezone": "-6", "dst": "S"}, {"city": "Lockport", "name": "Lewis University Airport", "country": "United States", "altitude": "680", "iata": "LOT", "longitude": "-88.083003", "icao": "KLOT", "latitude": "41.606326", "timezone": "-6", "dst": "A"}, {"city": "Louisville", "name": "Bowman Fld", "country": "United States", "altitude": "546", "iata": "LOU", "longitude": "-85.663722", "icao": "KLOU", "latitude": "38.228", "timezone": "-5", "dst": "A"}, {"city": "Fort Huachuca", "name": "Sierra Vista Muni Libby Aaf", "country": "United States", "altitude": "4719", "iata": "FHU", "longitude": "-110.344389", "icao": "KFHU", "latitude": "31.588472", "timezone": "-7", "dst": "A"}, {"city": "Jakarta", "name": "Halim Perdanakusuma International Airport", "country": "Indonesia", "altitude": "84", "iata": "HLP", "longitude": "106.891", "icao": "WIHH", "latitude": "-6.26661", "timezone": "7", "dst": "N"}, {"city": "Sylvania", "name": "Plantation Airpark", "country": "United States", "altitude": "188", "iata": "JYL", "longitude": "-81.5971111", "icao": "KJYL", "latitude": "32.6452778", "timezone": "-4", "dst": "A"}, {"city": "Noumea", "name": "La Tontouta", "country": "New Caledonia", "altitude": "52", "iata": "NOU", "longitude": "166.212972", "icao": "NWWW", "latitude": "-22.014553", "timezone": "11", "dst": "U"}, {"city": "El Obeid", "name": "El Obeid", "country": "Sudan", "altitude": "1927", "iata": "EBD", "longitude": "30.232675", "icao": "HSOB", "latitude": "13.153219", "timezone": "2", "dst": "U"}, {"city": "Ebenhofen", "name": "Ebenhofen BF", "country": "Germany", "altitude": "1200", "iata": "EBE", "longitude": "10.623", "icao": "EBEN", "latitude": "47.824", "timezone": "1", "dst": "E"}, {"city": "El Bagre", "name": "El Bagre Airport", "country": "Colombia", "altitude": "180", "iata": "EBG", "longitude": "-74.808889", "icao": "SKEB", "latitude": "7.596389", "timezone": "-5", "dst": "U"}, {"city": "Marina Di Campo", "name": "Marina Di Campo", "country": "Italy", "altitude": "31", "iata": "EBA", "longitude": "10.239445", "icao": "LIRJ", "latitude": "42.760277", "timezone": "1", "dst": "E"}, {"city": "Entebbe", "name": "Entebbe Intl", "country": "Uganda", "altitude": "3782", "iata": "EBB", "longitude": "32.443503", "icao": "HUEN", "latitude": "0.042386", "timezone": "3", "dst": "U"}, {"city": "Erbil", "name": "Erbil Intl", "country": "Iraq", "altitude": "1341", "iata": "EBL", "longitude": "43.963158", "icao": "ORER", "latitude": "36.237611", "timezone": "3", "dst": "U"}, {"city": "El Borma", "name": "El Borma", "country": "Tunisia", "altitude": "827", "iata": "EBM", "longitude": "9.254619", "icao": "DTTR", "latitude": "31.704281", "timezone": "0", "dst": "E"}, {"city": "Bochum", "name": "Bochum Railway", "country": "Germany", "altitude": "45", "iata": "EBO", "longitude": "7.222781", "icao": "\\N", "latitude": "51.478506", "timezone": "1", "dst": "U"}, {"city": "Esbjerg", "name": "Esbjerg", "country": "Denmark", "altitude": "97", "iata": "EBJ", "longitude": "8.553403", "icao": "EKEB", "latitude": "55.525942", "timezone": "1", "dst": "E"}, {"city": "St-Etienne", "name": "Boutheon", "country": "France", "altitude": "1325", "iata": "EBU", "longitude": "4.296389", "icao": "LFMH", "latitude": "45.540554", "timezone": "1", "dst": "E"}, {"city": "Rajahmundry", "name": "Rajahmundry", "country": "India", "altitude": "151", "iata": "RJA", "longitude": "81.818208", "icao": "VORY", "latitude": "17.110361", "timezone": "5.5", "dst": "N"}, {"city": "Rafsanjan", "name": "Rafsanjan Airport", "country": "Iran", "altitude": "5298", "iata": "RJN", "longitude": "56.051139", "icao": "OIKR", "latitude": "30.297714", "timezone": "3.5", "dst": "E"}, {"city": "Logro\u00f1o-Agoncillo", "name": "Logro\u00f1o-Agoncillo Airport", "country": "Spain", "altitude": "1161", "iata": "RJL", "longitude": "-2.32083", "icao": "LELO", "latitude": "42.4542", "timezone": "1", "dst": "E"}, {"city": "Rijeka", "name": "Rijeka", "country": "Croatia", "altitude": "278", "iata": "RJK", "longitude": "14.570267", "icao": "LDRI", "latitude": "45.216889", "timezone": "1", "dst": "E"}, {"city": "Rajshahi", "name": "Shah Mokhdum", "country": "Bangladesh", "altitude": "64", "iata": "RJH", "longitude": "88.616511", "icao": "VGRJ", "latitude": "24.437219", "timezone": "6", "dst": "U"}, {"city": "Dresden", "name": "Dresden", "country": "Germany", "altitude": "755", "iata": "DRS", "longitude": "13.767161", "icao": "EDDC", "latitude": "51.132767", "timezone": "1", "dst": "E"}, {"city": "Del Rio", "name": "Del Rio Intl", "country": "United States", "altitude": "1002", "iata": "DRT", "longitude": "-100.927158", "icao": "KDRT", "latitude": "29.374208", "timezone": "-6", "dst": "A"}, {"city": "Darwin", "name": "Darwin Intl", "country": "Australia", "altitude": "103", "iata": "DRW", "longitude": "130.87266", "icao": "YPDN", "latitude": "-12.4083333", "timezone": "9.5", "dst": "N"}, {"city": "Deridder", "name": "Beauregard Rgnl", "country": "United States", "altitude": "202", "iata": "DRI", "longitude": "-93.339917", "icao": "KDRI", "latitude": "30.831722", "timezone": "-6", "dst": "A"}, {"city": "Puntarenas", "name": "Drake Bay Airport", "country": "Costa Rica", "altitude": "12", "iata": "DRK", "longitude": "-83.6417", "icao": "MRDK", "latitude": "8.71889", "timezone": "-6", "dst": "N"}, {"city": "Drietabbetje", "name": "Drietabbetje Airstrip", "country": "Suriname", "altitude": "10", "iata": "DRJ", "longitude": "-54.66667", "icao": "SMDA", "latitude": "4.11667", "timezone": "-3", "dst": "U"}, {"city": "Drummond Island", "name": "Drummond Island Airport", "country": "United States", "altitude": "668", "iata": "DRM", "longitude": "-83.7439342", "icao": "KDRM", "latitude": "46.0093114", "timezone": "-5", "dst": "A"}, {"city": "Durango", "name": "Durango La Plata Co", "country": "United States", "altitude": "6685", "iata": "DRO", "longitude": "-107.75377", "icao": "KDRO", "latitude": "37.151516", "timezone": "-7", "dst": "A"}, {"city": "Derby", "name": "Derby Airport", "country": "Australia", "altitude": "26", "iata": "DRB", "longitude": "123.68", "icao": "YDBY", "latitude": "-17.39", "timezone": "8", "dst": "U"}, {"city": "Deering", "name": "Deering Airport", "country": "United States", "altitude": "21", "iata": "DRG", "longitude": "-162.766", "icao": "PADE", "latitude": "66.0696", "timezone": "-9", "dst": "A"}, {"city": "Cilacap", "name": "Tunggul Wulung", "country": "Indonesia", "altitude": "69", "iata": "CXP", "longitude": "109.033911", "icao": "WIHL", "latitude": "-7.645056", "timezone": "7", "dst": "N"}, {"city": "Nha Trang", "name": "Cam Ranh Airport", "country": "Vietnam", "altitude": "40", "iata": "CXR", "longitude": "109.219372", "icao": "VVCR", "latitude": "11.998153", "timezone": "7", "dst": "U"}, {"city": "Harrisburg", "name": "Capital City Airport", "country": "United States", "altitude": "347", "iata": "CXY", "longitude": "-76.8513611", "icao": "KCXY", "latitude": "40.2171389", "timezone": "-5", "dst": "A"}, {"city": "Cox's Bazar", "name": "Coxs Bazar", "country": "Bangladesh", "altitude": "12", "iata": "CXB", "longitude": "91.963889", "icao": "VGCB", "latitude": "21.452194", "timezone": "6", "dst": "U"}, {"city": "Coldfoot", "name": "Coldfoot Airport", "country": "United States", "altitude": "1014", "iata": "CXF", "longitude": "-150.176111", "icao": "\\N", "latitude": "67.251389", "timezone": "-9", "dst": "A"}, {"city": "Vancouver", "name": "Vancouver Coal Harbour", "country": "Canada", "altitude": "0", "iata": "CXH", "longitude": "-123.115833", "icao": "CAQ3", "latitude": "49.289722", "timezone": "-8", "dst": "A"}, {"city": "Kiritimati", "name": "Cassidy Intl", "country": "Kiribati", "altitude": "5", "iata": "CXI", "longitude": "-157.349778", "icao": "PLCH", "latitude": "1.986161", "timezone": "-12", "dst": "U"}, {"city": "Caxias Do Sul", "name": "Campo Dos Bugres", "country": "Brazil", "altitude": "2472", "iata": "CXJ", "longitude": "-51.187536", "icao": "SBCX", "latitude": "-29.197064", "timezone": "-3", "dst": "S"}, {"city": "Cooldige", "name": "Coolidge Municipal Airport", "country": "United States", "altitude": "1574", "iata": "P08", "longitude": "-111.427001953125", "icao": "KP08", "latitude": "32.9359016418457", "timezone": "-7", "dst": "A"}, {"city": "Calexico", "name": "Calexico Intl", "country": "United States", "altitude": "4", "iata": "CXL", "longitude": "-115.51333", "icao": "KCXL", "latitude": "32.669502", "timezone": "-8", "dst": "A"}, {"city": "Conroe", "name": "Lone Star Executive", "country": "United States", "altitude": "245", "iata": "CXO", "longitude": "-95.414467", "icao": "KCXO", "latitude": "30.351833", "timezone": "-6", "dst": "A"}, {"city": "Goma", "name": "Goma", "country": "Congo (Kinshasa)", "altitude": "5089", "iata": "GOM", "longitude": "29.238464", "icao": "FZNA", "latitude": "-1.670814", "timezone": "2", "dst": "U"}, {"city": "Agadez", "name": "Manu Dayak", "country": "Niger", "altitude": "1657", "iata": "AJY", "longitude": "8.000114", "icao": "DRZA", "latitude": "16.965997", "timezone": "1", "dst": "N"}, {"city": "Malta", "name": "Luqa", "country": "Malta", "altitude": "300", "iata": "MLA", "longitude": "14.4775", "icao": "LMML", "latitude": "35.857497", "timezone": "1", "dst": "E"}, {"city": "Godthaab", "name": "Nuuk", "country": "Greenland", "altitude": "283", "iata": "GOH", "longitude": "-51.678064", "icao": "BGGH", "latitude": "64.190922", "timezone": "-3", "dst": "E"}, {"city": "Male", "name": "Male Intl", "country": "Maldives", "altitude": "6", "iata": "MLE", "longitude": "73.529128", "icao": "VRMM", "latitude": "4.191833", "timezone": "5", "dst": "U"}, {"city": "Mulhouse", "name": "Bale Mulhouse", "country": "France", "altitude": "885", "iata": "MLH", "longitude": "7.529914", "icao": "LFSB", "latitude": "47.589583", "timezone": "1", "dst": "E"}, {"city": "Melilla", "name": "Melilla", "country": "Spain", "altitude": "156", "iata": "MLN", "longitude": "-2.956256", "icao": "GEML", "latitude": "35.279817", "timezone": "0", "dst": "E"}, {"city": "Aracaju", "name": "Santa Maria", "country": "Brazil", "altitude": "23", "iata": "AJU", "longitude": "-37.070333", "icao": "SBAR", "latitude": "-10.984", "timezone": "-3", "dst": "S"}, {"city": "Morelia", "name": "General Francisco J Mujica Intl", "country": "Mexico", "altitude": "6033", "iata": "MLM", "longitude": "-101.0255", "icao": "MMMM", "latitude": "19.849944", "timezone": "-6", "dst": "S"}, {"city": "Catalina Island", "name": "Avalon", "country": "United States", "altitude": "1602", "iata": "AVX", "longitude": "-118.415833", "icao": "KAVX", "latitude": "33.405", "timezone": "-8", "dst": "A"}, {"city": "Mpacha", "name": "Katima Mulilo Airport", "country": "Namibia", "altitude": "3144", "iata": "MPA", "longitude": "24.1767", "icao": "FYKM", "latitude": "-17.6344", "timezone": "1", "dst": "S"}, {"city": "Mount Pleasant", "name": "Mount Pleasant", "country": "Falkland Islands", "altitude": "244", "iata": "MPN", "longitude": "-58.447222", "icao": "EGYP", "latitude": "-51.822777", "timezone": "-4", "dst": "U"}, {"city": "Montpellier", "name": "Mediterranee", "country": "France", "altitude": "17", "iata": "MPL", "longitude": "3.963014", "icao": "LFMT", "latitude": "43.576194", "timezone": "1", "dst": "E"}, {"city": "Tucson", "name": "Marana Regional", "country": "United States", "altitude": "2031", "iata": "AVW", "longitude": "-111.218388", "icao": "KAVQ", "latitude": "32.409556", "timezone": "-7", "dst": "U"}, {"city": "Scranton", "name": "Wilkes Barre Scranton Intl", "country": "United States", "altitude": "962", "iata": "AVP", "longitude": "-75.723403", "icao": "KAVP", "latitude": "41.338478", "timezone": "-5", "dst": "A"}, {"city": "Mokpo", "name": "Mokpo Airport", "country": "South Korea", "altitude": "23", "iata": "MPK", "longitude": "126.379872", "icao": "RKJM", "latitude": "34.758906", "timezone": "9", "dst": "U"}, {"city": "Caticlan", "name": "Godofredo P", "country": "Philippines", "altitude": "20", "iata": "MPH", "longitude": "121.953", "icao": "RPXE", "latitude": "11.9214999", "timezone": "8", "dst": "N"}, {"city": "Mariposa", "name": "MariposaYosemite", "country": "United States", "altitude": "2454", "iata": "MPI", "longitude": "-120.0222", "icao": "KMPI", "latitude": "37.3039", "timezone": "-8", "dst": "A"}, {"city": "Montpelier", "name": "Edward F Knapp State", "country": "United States", "altitude": "1165", "iata": "MPV", "longitude": "-72.562328", "icao": "KMPV", "latitude": "44.203503", "timezone": "-5", "dst": "A"}, {"city": "Mariupol International", "name": "Mariupol International Airport", "country": "Ukraine", "altitude": "251", "iata": "MPW", "longitude": "37.4496", "icao": "UKCM", "latitude": "47.0761", "timezone": "2", "dst": "E"}, {"city": "Avignon", "name": "Caumont", "country": "France", "altitude": "124", "iata": "AVN", "longitude": "4.901831", "icao": "LFMV", "latitude": "43.9073", "timezone": "1", "dst": "E"}, {"city": "Mamitupo", "name": "Mamitupo", "country": "Panama", "altitude": "10", "iata": "MPU", "longitude": "-77.984167", "icao": "\\N", "latitude": "9.186667", "timezone": "-5", "dst": "U"}, {"city": "Ciego De Avila", "name": "Maximo Gomez", "country": "Cuba", "altitude": "335", "iata": "AVI", "longitude": "-78.789617", "icao": "MUCA", "latitude": "22.027053", "timezone": "-5", "dst": "U"}, {"city": "Mulatupo", "name": "Mulatupo Airport", "country": "Panama", "altitude": "0", "iata": "MPP", "longitude": "-77.75", "icao": "\\N", "latitude": "8.95", "timezone": "-5", "dst": "U"}, {"city": "Arvaikheer", "name": "Arvaikheer Airport", "country": "Mongolia", "altitude": "5932", "iata": "AVK", "longitude": "102.802", "icao": "ZMAH", "latitude": "46.2503", "timezone": "8", "dst": "U"}, {"city": "Galoya", "name": "Amparai", "country": "Sri Lanka", "altitude": "150", "iata": "GOY", "longitude": "81.625881", "icao": "VCCG", "latitude": "7.337081", "timezone": "6", "dst": "U"}, {"city": "Aviano", "name": "Aviano Ab", "country": "Italy", "altitude": "410", "iata": "AVB", "longitude": "12.596472", "icao": "LIPA", "latitude": "46.031889", "timezone": "1", "dst": "E"}, {"city": "Maripasoula", "name": "Maripasoula Airport", "country": "French Guiana", "altitude": "377", "iata": "MPY", "longitude": "-54.037222", "icao": "SOOA", "latitude": "3.6575", "timezone": "-4", "dst": "S"}, {"city": "Anjouan", "name": "Ouani", "country": "Comoros", "altitude": "62", "iata": "AJN", "longitude": "44.430279", "icao": "FMCV", "latitude": "-12.131667", "timezone": "3", "dst": "U"}, {"city": "Gorna Orechovica", "name": "Gorna Oryahovitsa", "country": "Bulgaria", "altitude": "285", "iata": "GOZ", "longitude": "25.712889", "icao": "LBGO", "latitude": "43.151444", "timezone": "2", "dst": "E"}, {"city": "Juazeiro Do Norte", "name": "Orlando Bezerra de Menezes Airport", "country": "Brazil", "altitude": "1392", "iata": "JDO", "longitude": "-39.2701", "icao": "SBJU", "latitude": "-7.218958", "timezone": "-3", "dst": "S"}, {"city": "Ajaccio", "name": "Campo Dell Oro", "country": "France", "altitude": "18", "iata": "AJA", "longitude": "8.802917", "icao": "LFKJ", "latitude": "41.923637", "timezone": "1", "dst": "E"}, {"city": "Gove", "name": "Gove Airport", "country": "Australia", "altitude": "192", "iata": "GOV", "longitude": "136.818", "icao": "YPGV", "latitude": "-12.2694", "timezone": "9.5", "dst": "O"}, {"city": "Panjgur", "name": "Panjgur", "country": "Pakistan", "altitude": "3289", "iata": "PJG", "longitude": "64.132517", "icao": "OPPG", "latitude": "26.954547", "timezone": "5", "dst": "N"}, {"city": "Desroches", "name": "Desroches", "country": "Seychelles", "altitude": "10", "iata": "DES", "longitude": "53.655844", "icao": "FSDR", "latitude": "-5.696697", "timezone": "4", "dst": "U"}, {"city": "Mansfield", "name": "Mansfield Municipal", "country": "United States", "altitude": "122", "iata": "1B9", "longitude": "-71.1967714", "icao": "\\N", "latitude": "42.0001331", "timezone": "-5", "dst": "A"}, {"city": "Kutahya", "name": "Zafer", "country": "Turkey", "altitude": "3327", "iata": "KZR", "longitude": "30.13", "icao": "LTBZ", "latitude": "39.111389", "timezone": "2", "dst": "E"}, {"city": "Kastelorizo", "name": "Kastelorizo", "country": "Greece", "altitude": "474", "iata": "KZS", "longitude": "29.566656", "icao": "LGKJ", "latitude": "36.127777", "timezone": "2", "dst": "E"}, {"city": "Zachar Bay", "name": "Zachar Bay Seaplane Base", "country": "United States", "altitude": "0", "iata": "KZB", "longitude": "-153.75", "icao": "\\N", "latitude": "57.55", "timezone": "-9", "dst": "A"}, {"city": "Kozani", "name": "Filippos", "country": "Greece", "altitude": "2059", "iata": "KZI", "longitude": "21.840834", "icao": "LGKZ", "latitude": "40.28611", "timezone": "2", "dst": "E"}, {"city": "Kazan", "name": "Kazan", "country": "Russia", "altitude": "411", "iata": "KZN", "longitude": "49.278728", "icao": "UWKD", "latitude": "55.606186", "timezone": "4", "dst": "N"}, {"city": "Kzyl-Orda", "name": "Kzyl-Orda", "country": "Kazakhstan", "altitude": "0", "iata": "KZO", "longitude": "65.591", "icao": "UAOO", "latitude": "44.709", "timezone": "6", "dst": "U"}, {"city": "Medford", "name": "Rogue Valley Intl Medford", "country": "United States", "altitude": "1335", "iata": "MFR", "longitude": "-122.8735", "icao": "KMFR", "latitude": "42.374228", "timezone": "-8", "dst": "A"}, {"city": "Golden", "name": "Golden Airport", "country": "Canada", "altitude": "2575", "iata": "YGE", "longitude": "-116.982", "icao": "CYGE", "latitude": "51.2992", "timezone": "-7", "dst": "A"}, {"city": "Texada", "name": "Texada Gillies Bay Airport", "country": "Canada", "altitude": "326", "iata": "YGB", "longitude": "-124.518", "icao": "CYGB", "latitude": "49.6942", "timezone": "-8", "dst": "A"}, {"city": "Gods Lake Narrows", "name": "Gods Lake Narrows Airport", "country": "Canada", "altitude": "617", "iata": "YGO", "longitude": "-94.4914", "icao": "CYGO", "latitude": "54.5589", "timezone": "-6", "dst": "A"}, {"city": "Gimli", "name": "Gimli Industrial Park Airport", "country": "Canada", "altitude": "753", "iata": "YGM", "longitude": "-97.043333", "icao": "CYGM", "latitude": "50.628056", "timezone": "-6", "dst": "A"}, {"city": "La Grande Riviere", "name": "La Grande Riviere", "country": "Canada", "altitude": "639", "iata": "YGL", "longitude": "-77.704167", "icao": "CYGL", "latitude": "53.625278", "timezone": "-5", "dst": "A"}, {"city": "Kingston", "name": "Kingston", "country": "Canada", "altitude": "305", "iata": "YGK", "longitude": "-76.596944", "icao": "CYGK", "latitude": "44.225277", "timezone": "-5", "dst": "A"}, {"city": "Miho", "name": "Yonago Kitaro", "country": "Japan", "altitude": "20", "iata": "YGJ", "longitude": "133.236389", "icao": "RJOH", "latitude": "35.492222", "timezone": "9", "dst": "U"}, {"city": "Fort Good Hope", "name": "Fort Good Hope", "country": "Canada", "altitude": "215", "iata": "YGH", "longitude": "-128.65", "icao": "CYGH", "latitude": "66.26666667", "timezone": "-7", "dst": "A"}, {"city": "Kuujjuarapik", "name": "Kuujjuarapik Airport", "country": "Canada", "altitude": "34", "iata": "YGW", "longitude": "-77.7653", "icao": "CYGW", "latitude": "55.2819", "timezone": "-5", "dst": "A"}, {"city": "Havre-Saint-Pierre", "name": "Havre Saint-Pierre Airport", "country": "Canada", "altitude": "124", "iata": "YGV", "longitude": "-63.611389", "icao": "CYGV", "latitude": "50.281944", "timezone": "-4", "dst": "A"}, {"city": "Igloolik", "name": "Igloolik Airport", "country": "Canada", "altitude": "174", "iata": "YGT", "longitude": "-81.8161", "icao": "CYGT", "latitude": "69.3647", "timezone": "-5", "dst": "A"}, {"city": "Iles De La Madeleine", "name": "Iles De La Madeleine", "country": "Canada", "altitude": "35", "iata": "YGR", "longitude": "-61.778056", "icao": "CYGR", "latitude": "47.424721", "timezone": "-4", "dst": "A"}, {"city": "Geraldton", "name": "Geraldton Greenstone Regional", "country": "Canada", "altitude": "1144", "iata": "YGQ", "longitude": "-86.939445", "icao": "CYGQ", "latitude": "49.778332", "timezone": "-5", "dst": "A"}, {"city": "Gaspe", "name": "Gaspe", "country": "Canada", "altitude": "108", "iata": "YGP", "longitude": "-64.478611", "icao": "CYGP", "latitude": "48.775278", "timezone": "-5", "dst": "A"}, {"city": "Grise Fiord", "name": "Grise Fiord Airport", "country": "Canada", "altitude": "146", "iata": "YGZ", "longitude": "-82.9092", "icao": "CYGZ", "latitude": "76.4261", "timezone": "-5", "dst": "A"}, {"city": "Gillam", "name": "Gillam Airport", "country": "Canada", "altitude": "476", "iata": "YGX", "longitude": "-94.7106", "icao": "CYGX", "latitude": "56.3575", "timezone": "-6", "dst": "A"}, {"city": "Chevak", "name": "Chevak Airport", "country": "United States", "altitude": "75", "iata": "VAK", "longitude": "-165.584", "icao": "PAVA", "latitude": "61.5338", "timezone": "-9", "dst": "A"}, {"city": "Vanimo", "name": "Vanimo Airport", "country": "Papua New Guinea", "altitude": "10", "iata": "VAI", "longitude": "141.302", "icao": "AYVN", "latitude": "-2.69717", "timezone": "10", "dst": "U"}, {"city": "Van", "name": "Van", "country": "Turkey", "altitude": "5480", "iata": "VAN", "longitude": "43.3323", "icao": "LTCI", "latitude": "38.468219", "timezone": "2", "dst": "E"}, {"city": "Suavanao", "name": "Suavanao Airport", "country": "Solomon Islands", "altitude": "0", "iata": "VAO", "longitude": "158.731", "icao": "AGGV", "latitude": "-7.58556", "timezone": "11", "dst": "U"}, {"city": "Valenca", "name": "Valenca Airport", "country": "Brazil", "altitude": "21", "iata": "VAL", "longitude": "-38.9924", "icao": "SNVB", "latitude": "-13.2965", "timezone": "3", "dst": "S"}, {"city": "Maamigili", "name": "Maamigili Airport", "country": "Maldives", "altitude": "6", "iata": "VAM", "longitude": "72.8344", "icao": "VRMV", "latitude": "3.4702", "timezone": "5", "dst": "U"}, {"city": "Vaasa", "name": "Vaasa", "country": "Finland", "altitude": "19", "iata": "VAA", "longitude": "21.762175", "icao": "EFVA", "latitude": "63.05065", "timezone": "2", "dst": "E"}, {"city": "Valence", "name": "Chabeuil", "country": "France", "altitude": "525", "iata": "VAF", "longitude": "4.9699", "icao": "LFLU", "latitude": "44.921594", "timezone": "1", "dst": "E"}, {"city": "Varginha", "name": "Major Brigadeiro Trompowsky", "country": "Brazil", "altitude": "3028", "iata": "VAG", "longitude": "-45.473342", "icao": "SBVG", "latitude": "-21.590067", "timezone": "-3", "dst": "S"}, {"city": "Valdosta", "name": "Moody Afb", "country": "United States", "altitude": "233", "iata": "VAD", "longitude": "-83.193", "icao": "KVAD", "latitude": "30.967833", "timezone": "-5", "dst": "A"}, {"city": "Mount Holly", "name": "South Jersey Regional Airport", "country": "United States", "altitude": "53", "iata": "VAY", "longitude": "-74.84575", "icao": "KVAY", "latitude": "39.9428889", "timezone": "-5", "dst": "A"}, {"city": "Varna", "name": "Varna", "country": "Bulgaria", "altitude": "230", "iata": "VAR", "longitude": "27.825106", "icao": "LBWN", "latitude": "43.232072", "timezone": "2", "dst": "E"}, {"city": "Sivas", "name": "Sivas", "country": "Turkey", "altitude": "5236", "iata": "VAS", "longitude": "36.903497", "icao": "LTAR", "latitude": "39.813828", "timezone": "2", "dst": "E"}, {"city": "Vava'u", "name": "Vavau Intl", "country": "Tonga", "altitude": "236", "iata": "VAV", "longitude": "-173.961717", "icao": "NFTV", "latitude": "-18.585336", "timezone": "13", "dst": "U"}, {"city": "Vard\u00f8", "name": "Svartnes Airport", "country": "Norway", "altitude": "42", "iata": "VAW", "longitude": "31.044889", "icao": "ENSS", "latitude": "70.355392", "timezone": "1", "dst": "E"}, {"city": "Wuyishan", "name": "Nanping Wuyishan Airport", "country": "China", "altitude": "614", "iata": "WUS", "longitude": "118.001", "icao": "ZSWY", "latitude": "27.7019", "timezone": "8", "dst": "U"}, {"city": "Wau", "name": "Wau Airport", "country": "Sudan", "altitude": "1420", "iata": "WUU", "longitude": "27.98", "icao": "HSWW", "latitude": "7.725", "timezone": "3", "dst": "U"}, {"city": "Wuzhou", "name": "Changzhoudao Airport", "country": "China", "altitude": "89", "iata": "WUZ", "longitude": "111.248", "icao": "ZGWZ", "latitude": "23.4567", "timezone": "8", "dst": "U"}, {"city": "Wuxi", "name": "Wuxi Airport", "country": "China", "altitude": "0", "iata": "WUX", "longitude": "120.429", "icao": "ZSWX", "latitude": "31.4944", "timezone": "8", "dst": "U"}, {"city": "Wuhai", "name": "Wuhai", "country": "China", "altitude": "0", "iata": "WUA", "longitude": "106.799444", "icao": "ZBUH", "latitude": "39.794444", "timezone": "8", "dst": "U"}, {"city": "Wuhan", "name": "Tianhe", "country": "China", "altitude": "113", "iata": "WUH", "longitude": "114.2081", "icao": "ZHHH", "latitude": "30.783758", "timezone": "8", "dst": "U"}, {"city": "Wiluna", "name": "Wiluna Airport", "country": "Australia", "altitude": "1649", "iata": "WUN", "longitude": "120.221", "icao": "YWLU", "latitude": "-26.6292", "timezone": "8", "dst": "O"}, {"city": "Uvalde", "name": "Garner Field", "country": "United States", "altitude": "942", "iata": "UVA", "longitude": "-99.748962", "icao": "KUVA", "latitude": "29.215429", "timezone": "-6", "dst": "A"}, {"city": "Ouvea", "name": "Ouvea", "country": "New Caledonia", "altitude": "23", "iata": "UVE", "longitude": "166.572778", "icao": "NWWV", "latitude": "-20.640556", "timezone": "11", "dst": "U"}, {"city": "Hewandorra", "name": "Hewanorra Intl", "country": "Saint Lucia", "altitude": "14", "iata": "UVF", "longitude": "-60.952597", "icao": "TLPL", "latitude": "13.733194", "timezone": "-4", "dst": "U"}, {"city": "Los Mochis", "name": "Valle Del Fuerte Intl", "country": "Mexico", "altitude": "16", "iata": "LMM", "longitude": "-109.080806", "icao": "MMLM", "latitude": "25.685194", "timezone": "-7", "dst": "S"}, {"city": "Savannakhet", "name": "Savannakhet", "country": "Laos", "altitude": "509", "iata": "ZVK", "longitude": "104.759531", "icao": "VLSK", "latitude": "16.556594", "timezone": "7", "dst": "U"}, {"city": "Hannover", "name": "Hannover Messe-Heliport", "country": "Germany", "altitude": "152", "iata": "ZVM", "longitude": "9.822136", "icao": "\\N", "latitude": "52.329035", "timezone": "1", "dst": "E"}, {"city": "Miandrivazo", "name": "Miandrivazo", "country": "Madagascar", "altitude": "203", "iata": "ZVA", "longitude": "45.450832", "icao": "FMMN", "latitude": "-19.562778", "timezone": "3", "dst": "U"}, {"city": "New Haven", "name": "New Haven Rail Station", "country": "United States", "altitude": "7", "iata": "ZVE", "longitude": "-72.925992", "icao": "\\N", "latitude": "41.298669", "timezone": "-5", "dst": "A"}, {"city": "Rocky Mount", "name": "Rocky Mount Wilson Regional Airport", "country": "United States", "altitude": "159", "iata": "RWI", "longitude": "-77.8919", "icao": "KRWI", "latitude": "35.8563", "timezone": "-5", "dst": "A"}, {"city": "Rawlins", "name": "Rawlins Municipal Airport-Harvey Field", "country": "United States", "altitude": "6813", "iata": "RWL", "longitude": "-107.19994", "icao": "KFWL", "latitude": "41.8055975", "timezone": "-7", "dst": "A"}, {"city": "Rivne", "name": "Rivne International Airport", "country": "Ukraine", "altitude": "755", "iata": "RWN", "longitude": "26.1416", "icao": "UKLR", "latitude": "50.6071", "timezone": "2", "dst": "E"}, {"city": "Donetsk", "name": "Donetsk Intl", "country": "Ukraine", "altitude": "791", "iata": "DOK", "longitude": "37.739722", "icao": "UKCC", "latitude": "48.073611", "timezone": "2", "dst": "E"}, {"city": "Doha", "name": "Doha Intl", "country": "Qatar", "altitude": "35", "iata": "DOH", "longitude": "51.565056", "icao": "OTBD", "latitude": "25.261125", "timezone": "3", "dst": "U"}, {"city": "Deauville", "name": "St Gatien", "country": "France", "altitude": "479", "iata": "DOL", "longitude": "0.154306", "icao": "LFRG", "latitude": "49.365339", "timezone": "1", "dst": "E"}, {"city": "Dominica", "name": "Melville Hall", "country": "Dominica", "altitude": "73", "iata": "DOM", "longitude": "-61.3", "icao": "TDPD", "latitude": "15.547028", "timezone": "-4", "dst": "U"}, {"city": "Dongola", "name": "Dongola", "country": "Sudan", "altitude": "773", "iata": "DOG", "longitude": "30.430094", "icao": "HSDN", "latitude": "19.153867", "timezone": "2", "dst": "U"}, {"city": "Dodoma", "name": "Dodoma", "country": "Tanzania", "altitude": "3637", "iata": "DOD", "longitude": "35.752578", "icao": "HTDO", "latitude": "-6.170436", "timezone": "3", "dst": "U"}, {"city": "Djoemoe", "name": "Djoemoe Airstrip", "country": "Suriname", "altitude": "10", "iata": "DOE", "longitude": "-55.483333", "icao": "\\N", "latitude": "4.016667", "timezone": "-3", "dst": "U"}, {"city": "Dongying", "name": "Dongying Airport", "country": "China", "altitude": "86", "iata": "DOY", "longitude": "118.2819", "icao": "ZSDY", "latitude": "37.2716", "timezone": "8", "dst": "U"}, {"city": "Dolpa", "name": "Dolpa", "country": "Nepal", "altitude": "8200", "iata": "DOP", "longitude": "82.819145", "icao": "VNDP", "latitude": "28.985718", "timezone": "5.75", "dst": "N"}, {"city": "Dover", "name": "Dover Afb", "country": "United States", "altitude": "28", "iata": "DOV", "longitude": "-75.465958", "icao": "KDOV", "latitude": "39.129539", "timezone": "-5", "dst": "A"}, {"city": "Dourados", "name": "Dourados Airport", "country": "Brazil", "altitude": "1433", "iata": "DOU", "longitude": "-54.805833", "icao": "SSDO", "latitude": "-22.220833", "timezone": "-3", "dst": "S"}, {"city": "Viroqua", "name": "Municipal Airport", "country": "United States", "altitude": "1292", "iata": "Y51", "longitude": "-90.8964742", "icao": "\\N", "latitude": "43.5793603", "timezone": "-6", "dst": "A"}, {"city": "Thargomindah", "name": "Thargomindah Airport", "country": "Australia", "altitude": "433", "iata": "XTG", "longitude": "143.811", "icao": "YTGM", "latitude": "-27.9864", "timezone": "10", "dst": "O"}, {"city": "Tadoule Lake", "name": "Tadoule Lake Airport", "country": "Canada", "altitude": "923", "iata": "XTL", "longitude": "-98.512222", "icao": "CYBQ", "latitude": "58.706111", "timezone": "-7", "dst": "A"}, {"city": "Pomalaa", "name": "Pomalaa", "country": "Indonesia", "altitude": "0", "iata": "PUM", "longitude": "121.61667", "icao": "\\N", "latitude": "-4.183333", "timezone": "8", "dst": "N"}, {"city": "Punta Cana", "name": "Punta Cana Intl", "country": "Dominican Republic", "altitude": "47", "iata": "PUJ", "longitude": "-68.363431", "icao": "MDPC", "latitude": "18.567367", "timezone": "-4", "dst": "U"}, {"city": "Puerto Deseado", "name": "Puerto Deseado", "country": "Argentina", "altitude": "266", "iata": "PUD", "longitude": "-65.904097", "icao": "SAWD", "latitude": "-47.735292", "timezone": "-3", "dst": "N"}, {"city": "Puerto Obaldia", "name": "Puerto Obaldia", "country": "Panama", "altitude": "223", "iata": "PUE", "longitude": "-77.5333", "icao": "MPOA", "latitude": "8.68333", "timezone": "-5", "dst": "U"}, {"city": "Pau", "name": "Pau Pyrenees", "country": "France", "altitude": "616", "iata": "PUF", "longitude": "-0.418611", "icao": "LFBP", "latitude": "43.38", "timezone": "1", "dst": "E"}, {"city": "Argyle", "name": "Port Augusta Airport", "country": "Australia", "altitude": "56", "iata": "PUG", "longitude": "137.716667", "icao": "YPAG", "latitude": "-32.506944", "timezone": "9.5", "dst": "O"}, {"city": "Pueblo", "name": "Pueblo Memorial", "country": "United States", "altitude": "4726", "iata": "PUB", "longitude": "-104.496572", "icao": "KPUB", "latitude": "38.289085", "timezone": "-7", "dst": "A"}, {"city": "Price", "name": "Carbon County Regional-Buck Davis Field", "country": "United States", "altitude": "5957", "iata": "PUC", "longitude": "-110.75278", "icao": "KPUC", "latitude": "39.609722", "timezone": "-6", "dst": "A"}, {"city": "Nazca", "name": "Maria Reiche Neuman Airport", "country": "Peru", "altitude": "1860", "iata": "NZA", "longitude": "-74.961811", "icao": "SPZA", "latitude": "-14.854192", "timezone": "-5", "dst": "U"}, {"city": "Quanzhou", "name": "Quanzhou Airport", "country": "China", "altitude": "0", "iata": "JJN", "longitude": "118.59", "icao": "ZSQZ", "latitude": "24.7964", "timezone": "8", "dst": "U"}, {"city": "Pula", "name": "Pula", "country": "Croatia", "altitude": "274", "iata": "PUY", "longitude": "13.922192", "icao": "LDPL", "latitude": "44.893533", "timezone": "1", "dst": "E"}, {"city": "Puerto Cabezas", "name": "Puerto Cabezas", "country": "Nicaragua", "altitude": "69", "iata": "PUZ", "longitude": "-83.386722", "icao": "MNPC", "latitude": "14.047194", "timezone": "-6", "dst": "U"}, {"city": "Puerto Asis", "name": "Tres De Mayo", "country": "Colombia", "altitude": "815", "iata": "PUU", "longitude": "-76.500836", "icao": "SKAS", "latitude": "0.505228", "timezone": "-5", "dst": "U"}, {"city": "Pullman", "name": "Pullman-Moscow Rgnl", "country": "United States", "altitude": "2556", "iata": "PUW", "longitude": "-117.109583", "icao": "KPUW", "latitude": "46.743861", "timezone": "-8", "dst": "A"}, {"city": "Punta Arenas", "name": "Carlos Ibanez Del Campo Intl", "country": "Chile", "altitude": "139", "iata": "PUQ", "longitude": "-70.854586", "icao": "SCCI", "latitude": "-53.002642", "timezone": "-4", "dst": "S"}, {"city": "Puerto Rico/Manuripi", "name": "Puerto Rico Airport", "country": "Bolivia", "altitude": "597", "iata": "PUR", "longitude": "-67.5512", "icao": "SLPR", "latitude": "-11.1077", "timezone": "-4", "dst": "U"}, {"city": "Busan", "name": "Gimhae Intl", "country": "South Korea", "altitude": "6", "iata": "PUS", "longitude": "128.938222", "icao": "RKPK", "latitude": "35.179528", "timezone": "9", "dst": "U"}, {"city": "Baotou", "name": "Baotou Airport", "country": "China", "altitude": "3321", "iata": "BAV", "longitude": "109.997", "icao": "ZBOW", "latitude": "40.56", "timezone": "8", "dst": "U"}, {"city": "Kankan", "name": "Kankan", "country": "Guinea", "altitude": "8694", "iata": "KNN", "longitude": "-9.227499", "icao": "GUXD", "latitude": "10.448333", "timezone": "0", "dst": "U"}, {"city": "Bauru", "name": "Bauru", "country": "Brazil", "altitude": "2025", "iata": "BAU", "longitude": "-49.0538", "icao": "SBBU", "latitude": "-22.345042", "timezone": "-3", "dst": "S"}, {"city": "Ballalae", "name": "Ballalae Airport", "country": "Solomon Islands", "altitude": "5", "iata": "BAS", "longitude": "155.883", "icao": "AGGE", "latitude": "-6.967", "timezone": "11", "dst": "U"}, {"city": "Barranquilla", "name": "Ernesto Cortissoz", "country": "Colombia", "altitude": "98", "iata": "BAQ", "longitude": "-74.780819", "icao": "SKBQ", "latitude": "10.889589", "timezone": "-5", "dst": "U"}, {"city": "Barcelos", "name": "Barcelos Airport", "country": "Brazil", "altitude": "500", "iata": "BAZ", "longitude": "-62.923889", "icao": "SWBC", "latitude": "-0.975", "timezone": "-4", "dst": "S"}, {"city": "Barnaul", "name": "Barnaul", "country": "Russia", "altitude": "838", "iata": "BAX", "longitude": "83.538533", "icao": "UNBB", "latitude": "53.363775", "timezone": "7", "dst": "N"}, {"city": "Baia Mare", "name": "Tautii Magheraus", "country": "Romania", "altitude": "605", "iata": "BAY", "longitude": "23.470022", "icao": "LRBM", "latitude": "47.658389", "timezone": "2", "dst": "E"}, {"city": "Westfield", "name": "Barnes Municipal", "country": "United States", "altitude": "270", "iata": "BAF", "longitude": "-72.715875", "icao": "KBAF", "latitude": "42.1579472", "timezone": "-4", "dst": "A"}, {"city": "Baguio", "name": "Baguio", "country": "Philippines", "altitude": "4251", "iata": "BAG", "longitude": "120.619636", "icao": "RPUB", "latitude": "16.375103", "timezone": "8", "dst": "N"}, {"city": "Shreveport", "name": "Barksdale Afb", "country": "United States", "altitude": "166", "iata": "BAD", "longitude": "-93.662674", "icao": "KBAD", "latitude": "32.50182", "timezone": "-6", "dst": "A"}, {"city": "Marysville", "name": "Beale Afb", "country": "United States", "altitude": "113", "iata": "BAB", "longitude": "-121.436567", "icao": "KBAB", "latitude": "39.136089", "timezone": "-8", "dst": "A"}, {"city": "Batman", "name": "Batman", "country": "Turkey", "altitude": "1822", "iata": "BAL", "longitude": "41.116583", "icao": "LTCJ", "latitude": "37.928969", "timezone": "2", "dst": "E"}, {"city": "Bamberg", "name": "Bamberg BF", "country": "Germany", "altitude": "800", "iata": "BAM", "longitude": "10.9", "icao": "BAMB", "latitude": "49.911", "timezone": "1", "dst": "E"}, {"city": "Baku", "name": "Heydar Aliyev", "country": "Azerbaijan", "altitude": "10", "iata": "BAK", "longitude": "50.046667", "icao": "\\N", "latitude": "40.4675", "timezone": "4", "dst": "E"}, {"city": "Bahrain", "name": "Bahrain Intl", "country": "Bahrain", "altitude": "6", "iata": "BAH", "longitude": "50.63361", "icao": "OBBI", "latitude": "26.270834", "timezone": "3", "dst": "U"}, {"city": "Kindu", "name": "Kindu", "country": "Congo (Kinshasa)", "altitude": "1630", "iata": "KND", "longitude": "25.915361", "icao": "FZOA", "latitude": "-2.919178", "timezone": "2", "dst": "U"}, {"city": "Santo Domingo", "name": "Mayor Buenaventura Vivas", "country": "Venezuela", "altitude": "1083", "iata": "STD", "longitude": "-72.035125", "icao": "SVSO", "latitude": "7.565111", "timezone": "-4", "dst": "U"},